{"id":"keio","label":"京王バス","generated_from":"Keio_AllLines-20260404.zip","map_center":[35.6637,139.4329],"map_zoom":11,"route_count":255,"pattern_count":581,"routes":[{"route_id":"2","short_name":"西５５","full_short_name":"西５５","long_name":"","color":"#dd1f26","text_color":"#ffffff","patterns":[{"pattern_id":"2-2","direction_id":"0","headsign":"","shape_id":"","trip_count":25,"sample_trip_id":"10_01_0081_03_012101","stop_count":15,"shape_point_count":15,"shape":[[35.656428,139.313157],[35.655228,139.31341],[35.654,139.311078],[35.651585,139.306669],[35.649964,139.305899],[35.646922,139.311568],[35.643338,139.307563],[35.640873,139.308303],[35.637633,139.30991],[35.633284,139.312434],[35.631917,139.312172],[35.628841,139.310451],[35.625006,139.309636],[35.622999,139.306572],[35.621559,139.302299]],"stops":[{"seq":1,"stop_id":"1034_01","name":"西八王子駅南口","lat":35.656428,"lon":139.313157,"time":"05:59"},{"seq":2,"stop_id":"1033_01","name":"西八王子駅南入口","lat":35.655228,"lon":139.31341,"time":"05:59"},{"seq":3,"stop_id":"0458_01","name":"散田三丁目","lat":35.654,"lon":139.311078,"time":"06:00"},{"seq":4,"stop_id":"0459_01","name":"散田四丁目","lat":35.651585,"lon":139.306669,"time":"06:01"},{"seq":5,"stop_id":"1530_01","name":"横山中学","lat":35.649964,"lon":139.305899,"time":"06:02"},{"seq":6,"stop_id":"1468_01","name":"めじろ台一丁目","lat":35.646922,"lon":139.311568,"time":"06:04"},{"seq":7,"stop_id":"1469_02","name":"めじろ台駅","lat":35.643338,"lon":139.307563,"time":"06:10"},{"seq":8,"stop_id":"1470_01","name":"めじろ台南","lat":35.640873,"lon":139.308303,"time":"06:10"},{"seq":9,"stop_id":"0294_01","name":"椚田北","lat":35.637633,"lon":139.30991,"time":"06:11"},{"seq":10,"stop_id":"0293_01","name":"椚田","lat":35.633284,"lon":139.312434,"time":"06:12"},{"seq":11,"stop_id":"0516_01","name":"下寺田","lat":35.631917,"lon":139.312172,"time":"06:12"},{"seq":12,"stop_id":"1139_01","name":"榛名橋","lat":35.628841,"lon":139.310451,"time":"06:13"},{"seq":13,"stop_id":"0827_01","name":"寺田東","lat":35.625006,"lon":139.309636,"time":"06:15"},{"seq":14,"stop_id":"0825_01","name":"寺田センター","lat":35.622999,"lon":139.306572,"time":"06:16"},{"seq":15,"stop_id":"0301_00","name":"グリーンヒル寺田","lat":35.621559,"lon":139.302299,"time":"06:19"}],"trip_counts":{"weekday":9,"saturday":8,"holiday":8}},{"pattern_id":"2-1","direction_id":"1","headsign":"","shape_id":"","trip_count":27,"sample_trip_id":"01_02_0121_02_000022","stop_count":14,"shape_point_count":14,"shape":[[35.621755,139.301622],[35.623032,139.306113],[35.624772,139.3092],[35.629578,139.310614],[35.631832,139.311894],[35.633588,139.312156],[35.637475,139.309752],[35.641063,139.307967],[35.643636,139.307213],[35.646655,139.311614],[35.649871,139.305702],[35.651866,139.306872],[35.65417,139.311165],[35.656164,139.313074]],"stops":[{"seq":1,"stop_id":"0301_02","name":"グリーンヒル寺田","lat":35.621755,"lon":139.301622,"time":"06:26"},{"seq":2,"stop_id":"0825_02","name":"寺田センター","lat":35.623032,"lon":139.306113,"time":"06:27"},{"seq":3,"stop_id":"0827_00","name":"寺田東","lat":35.624772,"lon":139.3092,"time":"06:29"},{"seq":4,"stop_id":"1139_00","name":"榛名橋","lat":35.629578,"lon":139.310614,"time":"06:30"},{"seq":5,"stop_id":"0516_02","name":"下寺田","lat":35.631832,"lon":139.311894,"time":"06:30"},{"seq":6,"stop_id":"0293_02","name":"椚田","lat":35.633588,"lon":139.312156,"time":"06:31"},{"seq":7,"stop_id":"0294_02","name":"椚田北","lat":35.637475,"lon":139.309752,"time":"06:32"},{"seq":8,"stop_id":"1470_02","name":"めじろ台南","lat":35.641063,"lon":139.307967,"time":"06:33"},{"seq":9,"stop_id":"1469_00","name":"めじろ台駅","lat":35.643636,"lon":139.307213,"time":"06:37"},{"seq":10,"stop_id":"1468_02","name":"めじろ台一丁目","lat":35.646655,"lon":139.311614,"time":"06:39"},{"seq":11,"stop_id":"1530_02","name":"横山中学","lat":35.649871,"lon":139.305702,"time":"06:40"},{"seq":12,"stop_id":"0459_02","name":"散田四丁目","lat":35.651866,"lon":139.306872,"time":"06:41"},{"seq":13,"stop_id":"0458_02","name":"散田三丁目","lat":35.65417,"lon":139.311165,"time":"06:42"},{"seq":14,"stop_id":"1034_00","name":"西八王子駅南口","lat":35.656164,"lon":139.313074,"time":"06:47"}],"trip_counts":{"weekday":9,"saturday":9,"holiday":9}}],"pattern_count":2},{"route_id":"4","short_name":"八９４","full_short_name":"八９４","long_name":"","color":"#dd1f26","text_color":"#ffffff","patterns":[{"pattern_id":"4-2","direction_id":"1","headsign":"","shape_id":"","trip_count":28,"sample_trip_id":"01_01_0671_03_000042","stop_count":12,"shape_point_count":12,"shape":[[35.656164,139.313074],[35.655648,139.313947],[35.653411,139.317259],[35.651603,139.319547],[35.650367,139.324161],[35.65171,139.326052],[35.652479,139.328966],[35.65234,139.330815],[35.652175,139.334019],[35.652157,139.335049],[35.652609,139.337987],[35.654097,139.338611]],"stops":[{"seq":1,"stop_id":"1034_00","name":"西八王子駅南口","lat":35.656164,"lon":139.313074,"time":"06:56"},{"seq":2,"stop_id":"1033_02","name":"西八王子駅南入口","lat":35.655648,"lon":139.313947,"time":"06:56"},{"seq":3,"stop_id":"0383_02","name":"御所水通り","lat":35.653411,"lon":139.317259,"time":"06:57"},{"seq":4,"stop_id":"1492_02","name":"野球場前（八王子市）","lat":35.651603,"lon":139.319547,"time":"06:58"},{"seq":5,"stop_id":"0501_02","name":"市民体育館","lat":35.650367,"lon":139.324161,"time":"06:59"},{"seq":6,"stop_id":"1253_02","name":"富士森公園","lat":35.65171,"lon":139.326052,"time":"07:01"},{"seq":7,"stop_id":"0481_02","name":"実践高校","lat":35.652479,"lon":139.328966,"time":"07:02"},{"seq":8,"stop_id":"1445_02","name":"みよし坂上","lat":35.65234,"lon":139.330815,"time":"07:03"},{"seq":9,"stop_id":"1560_02","name":"万町一丁目","lat":35.652175,"lon":139.334019,"time":"07:04"},{"seq":10,"stop_id":"0403_02","name":"子安公園前","lat":35.652157,"lon":139.335049,"time":"07:04"},{"seq":11,"stop_id":"0405_02","name":"子安三丁目","lat":35.652609,"lon":139.337987,"time":"07:05"},{"seq":12,"stop_id":"1108_00","name":"八王子駅南口","lat":35.654097,"lon":139.338611,"time":"07:10"}],"trip_counts":{"weekday":10,"saturday":9,"holiday":9}},{"pattern_id":"4-1","direction_id":"0","headsign":"","shape_id":"","trip_count":32,"sample_trip_id":"01_01_0671_02_000041","stop_count":11,"shape_point_count":11,"shape":[[35.654097,139.338611],[35.652014,139.336857],[35.652068,139.334875],[35.652077,139.333864],[35.652238,139.330872],[35.652437,139.328172],[35.651577,139.326143],[35.649946,139.32334],[35.651391,139.319662],[35.653258,139.317289],[35.656164,139.313074]],"stops":[{"seq":1,"stop_id":"1108_00","name":"八王子駅南口","lat":35.654097,"lon":139.338611,"time":"06:37"},{"seq":2,"stop_id":"0405_07","name":"子安三丁目","lat":35.652014,"lon":139.336857,"time":"06:38"},{"seq":3,"stop_id":"0403_01","name":"子安公園前","lat":35.652068,"lon":139.334875,"time":"06:38"},{"seq":4,"stop_id":"1560_01","name":"万町一丁目","lat":35.652077,"lon":139.333864,"time":"06:38"},{"seq":5,"stop_id":"1445_01","name":"みよし坂上","lat":35.652238,"lon":139.330872,"time":"06:39"},{"seq":6,"stop_id":"0481_01","name":"実践高校","lat":35.652437,"lon":139.328172,"time":"06:40"},{"seq":7,"stop_id":"1253_01","name":"富士森公園","lat":35.651577,"lon":139.326143,"time":"06:42"},{"seq":8,"stop_id":"0501_01","name":"市民体育館","lat":35.649946,"lon":139.32334,"time":"06:43"},{"seq":9,"stop_id":"1492_01","name":"野球場前（八王子市）","lat":35.651391,"lon":139.319662,"time":"06:44"},{"seq":10,"stop_id":"0383_01","name":"御所水通り","lat":35.653258,"lon":139.317289,"time":"06:45"},{"seq":11,"stop_id":"1034_00","name":"西八王子駅南口","lat":35.656164,"lon":139.313074,"time":"06:51"}],"trip_counts":{"weekday":12,"saturday":10,"holiday":10}}],"pattern_count":2},{"route_id":"5","short_name":"八９６","full_short_name":"八９６","long_name":"","color":"#dd1f26","text_color":"#ffffff","patterns":[{"pattern_id":"5-2","direction_id":"1","headsign":"","shape_id":"","trip_count":5,"sample_trip_id":"01_01_0852_05_000052","stop_count":28,"shape_point_count":28,"shape":[[35.61366,139.297386],[35.616903,139.296623],[35.620341,139.297594],[35.621755,139.301622],[35.623032,139.306113],[35.624772,139.3092],[35.629578,139.310614],[35.631832,139.311894],[35.633588,139.312156],[35.637475,139.309752],[35.641063,139.307967],[35.643636,139.307213],[35.646655,139.311614],[35.649871,139.305702],[35.651866,139.306872],[35.65417,139.311165],[35.656164,139.313074],[35.655648,139.313947],[35.653411,139.317259],[35.651603,139.319547],[35.650367,139.324161],[35.65171,139.326052],[35.652479,139.328966],[35.65234,139.330815],[35.652175,139.334019],[35.652157,139.335049],[35.652609,139.337987],[35.654097,139.338611]],"stops":[{"seq":1,"stop_id":"1291_00","name":"法政大学","lat":35.61366,"lon":139.297386,"time":"18:22"},{"seq":2,"stop_id":"1755_02","name":"東京秋田霊園","lat":35.616903,"lon":139.296623,"time":"18:23"},{"seq":3,"stop_id":"0233_02","name":"上寺田","lat":35.620341,"lon":139.297594,"time":"18:23"},{"seq":4,"stop_id":"0301_02","name":"グリーンヒル寺田","lat":35.621755,"lon":139.301622,"time":"18:25"},{"seq":5,"stop_id":"0825_02","name":"寺田センター","lat":35.623032,"lon":139.306113,"time":"18:26"},{"seq":6,"stop_id":"0827_00","name":"寺田東","lat":35.624772,"lon":139.3092,"time":"18:28"},{"seq":7,"stop_id":"1139_00","name":"榛名橋","lat":35.629578,"lon":139.310614,"time":"18:29"},{"seq":8,"stop_id":"0516_02","name":"下寺田","lat":35.631832,"lon":139.311894,"time":"18:29"},{"seq":9,"stop_id":"0293_02","name":"椚田","lat":35.633588,"lon":139.312156,"time":"18:30"},{"seq":10,"stop_id":"0294_02","name":"椚田北","lat":35.637475,"lon":139.309752,"time":"18:31"},{"seq":11,"stop_id":"1470_02","name":"めじろ台南","lat":35.641063,"lon":139.307967,"time":"18:32"},{"seq":12,"stop_id":"1469_00","name":"めじろ台駅","lat":35.643636,"lon":139.307213,"time":"18:38"},{"seq":13,"stop_id":"1468_02","name":"めじろ台一丁目","lat":35.646655,"lon":139.311614,"time":"18:40"},{"seq":14,"stop_id":"1530_02","name":"横山中学","lat":35.649871,"lon":139.305702,"time":"18:41"},{"seq":15,"stop_id":"0459_02","name":"散田四丁目","lat":35.651866,"lon":139.306872,"time":"18:42"},{"seq":16,"stop_id":"0458_02","name":"散田三丁目","lat":35.65417,"lon":139.311165,"time":"18:43"},{"seq":17,"stop_id":"1034_00","name":"西八王子駅南口","lat":35.656164,"lon":139.313074,"time":"18:51"},{"seq":18,"stop_id":"1033_02","name":"西八王子駅南入口","lat":35.655648,"lon":139.313947,"time":"18:51"},{"seq":19,"stop_id":"0383_02","name":"御所水通り","lat":35.653411,"lon":139.317259,"time":"18:52"},{"seq":20,"stop_id":"1492_02","name":"野球場前（八王子市）","lat":35.651603,"lon":139.319547,"time":"18:53"},{"seq":21,"stop_id":"0501_02","name":"市民体育館","lat":35.650367,"lon":139.324161,"time":"18:54"},{"seq":22,"stop_id":"1253_02","name":"富士森公園","lat":35.65171,"lon":139.326052,"time":"18:56"},{"seq":23,"stop_id":"0481_02","name":"実践高校","lat":35.652479,"lon":139.328966,"time":"18:57"},{"seq":24,"stop_id":"1445_02","name":"みよし坂上","lat":35.65234,"lon":139.330815,"time":"18:58"},{"seq":25,"stop_id":"1560_02","name":"万町一丁目","lat":35.652175,"lon":139.334019,"time":"18:59"},{"seq":26,"stop_id":"0403_02","name":"子安公園前","lat":35.652157,"lon":139.335049,"time":"18:59"},{"seq":27,"stop_id":"0405_02","name":"子安三丁目","lat":35.652609,"lon":139.337987,"time":"19:00"},{"seq":28,"stop_id":"1108_00","name":"八王子駅南口","lat":35.654097,"lon":139.338611,"time":"19:07"}],"trip_counts":{"weekday":3,"saturday":1,"holiday":1}},{"pattern_id":"5-1","direction_id":"0","headsign":"","shape_id":"","trip_count":2,"sample_trip_id":"01_01_0852_04_000051","stop_count":28,"shape_point_count":28,"shape":[[35.654097,139.338611],[35.652014,139.336857],[35.652068,139.334875],[35.652077,139.333864],[35.652238,139.330872],[35.652437,139.328172],[35.651577,139.326143],[35.649946,139.32334],[35.651391,139.319662],[35.653258,139.317289],[35.656428,139.313157],[35.655228,139.31341],[35.654,139.311078],[35.651585,139.306669],[35.649964,139.305899],[35.646922,139.311568],[35.643338,139.307563],[35.640873,139.308303],[35.637633,139.30991],[35.633284,139.312434],[35.631917,139.312172],[35.628841,139.310451],[35.625006,139.309636],[35.622999,139.306572],[35.621559,139.302299],[35.619841,139.297362],[35.617997,139.296766],[35.61366,139.297386]],"stops":[{"seq":1,"stop_id":"1108_00","name":"八王子駅南口","lat":35.654097,"lon":139.338611,"time":"17:28"},{"seq":2,"stop_id":"0405_07","name":"子安三丁目","lat":35.652014,"lon":139.336857,"time":"17:29"},{"seq":3,"stop_id":"0403_01","name":"子安公園前","lat":35.652068,"lon":139.334875,"time":"17:29"},{"seq":4,"stop_id":"1560_01","name":"万町一丁目","lat":35.652077,"lon":139.333864,"time":"17:29"},{"seq":5,"stop_id":"1445_01","name":"みよし坂上","lat":35.652238,"lon":139.330872,"time":"17:30"},{"seq":6,"stop_id":"0481_01","name":"実践高校","lat":35.652437,"lon":139.328172,"time":"17:31"},{"seq":7,"stop_id":"1253_01","name":"富士森公園","lat":35.651577,"lon":139.326143,"time":"17:33"},{"seq":8,"stop_id":"0501_01","name":"市民体育館","lat":35.649946,"lon":139.32334,"time":"17:34"},{"seq":9,"stop_id":"1492_01","name":"野球場前（八王子市）","lat":35.651391,"lon":139.319662,"time":"17:35"},{"seq":10,"stop_id":"0383_01","name":"御所水通り","lat":35.653258,"lon":139.317289,"time":"17:36"},{"seq":11,"stop_id":"1034_01","name":"西八王子駅南口","lat":35.656428,"lon":139.313157,"time":"17:45"},{"seq":12,"stop_id":"1033_01","name":"西八王子駅南入口","lat":35.655228,"lon":139.31341,"time":"17:45"},{"seq":13,"stop_id":"0458_01","name":"散田三丁目","lat":35.654,"lon":139.311078,"time":"17:46"},{"seq":14,"stop_id":"0459_01","name":"散田四丁目","lat":35.651585,"lon":139.306669,"time":"17:47"},{"seq":15,"stop_id":"1530_01","name":"横山中学","lat":35.649964,"lon":139.305899,"time":"17:48"},{"seq":16,"stop_id":"1468_01","name":"めじろ台一丁目","lat":35.646922,"lon":139.311568,"time":"17:50"},{"seq":17,"stop_id":"1469_02","name":"めじろ台駅","lat":35.643338,"lon":139.307563,"time":"17:57"},{"seq":18,"stop_id":"1470_01","name":"めじろ台南","lat":35.640873,"lon":139.308303,"time":"17:57"},{"seq":19,"stop_id":"0294_01","name":"椚田北","lat":35.637633,"lon":139.30991,"time":"17:58"},{"seq":20,"stop_id":"0293_01","name":"椚田","lat":35.633284,"lon":139.312434,"time":"17:59"},{"seq":21,"stop_id":"0516_01","name":"下寺田","lat":35.631917,"lon":139.312172,"time":"17:59"},{"seq":22,"stop_id":"1139_01","name":"榛名橋","lat":35.628841,"lon":139.310451,"time":"18:00"},{"seq":23,"stop_id":"0827_01","name":"寺田東","lat":35.625006,"lon":139.309636,"time":"18:02"},{"seq":24,"stop_id":"0825_01","name":"寺田センター","lat":35.622999,"lon":139.306572,"time":"18:03"},{"seq":25,"stop_id":"0301_00","name":"グリーンヒル寺田","lat":35.621559,"lon":139.302299,"time":"18:04"},{"seq":26,"stop_id":"0233_01","name":"上寺田","lat":35.619841,"lon":139.297362,"time":"18:05"},{"seq":27,"stop_id":"1755_01","name":"東京秋田霊園","lat":35.617997,"lon":139.296766,"time":"18:05"},{"seq":28,"stop_id":"1291_00","name":"法政大学","lat":35.61366,"lon":139.297386,"time":"18:13"}],"trip_counts":{"weekday":2,"saturday":0,"holiday":0}}],"pattern_count":2},{"route_id":"6","short_name":"西５６","full_short_name":"西５６","long_name":"","color":"#dd1f26","text_color":"#ffffff","patterns":[{"pattern_id":"6-1","direction_id":"0","headsign":"","shape_id":"","trip_count":247,"sample_trip_id":"01_01_0152_03_000061","stop_count":18,"shape_point_count":18,"shape":[[35.656428,139.313157],[35.655228,139.31341],[35.654,139.311078],[35.651585,139.306669],[35.649964,139.305899],[35.646922,139.311568],[35.643338,139.307563],[35.640873,139.308303],[35.637633,139.30991],[35.633284,139.312434],[35.631917,139.312172],[35.628841,139.310451],[35.625006,139.309636],[35.622999,139.306572],[35.621559,139.302299],[35.619841,139.297362],[35.617997,139.296766],[35.61366,139.297386]],"stops":[{"seq":1,"stop_id":"1034_01","name":"西八王子駅南口","lat":35.656428,"lon":139.313157,"time":"11:09"},{"seq":2,"stop_id":"1033_01","name":"西八王子駅南入口","lat":35.655228,"lon":139.31341,"time":"11:09"},{"seq":3,"stop_id":"0458_01","name":"散田三丁目","lat":35.654,"lon":139.311078,"time":"11:10"},{"seq":4,"stop_id":"0459_01","name":"散田四丁目","lat":35.651585,"lon":139.306669,"time":"11:11"},{"seq":5,"stop_id":"1530_01","name":"横山中学","lat":35.649964,"lon":139.305899,"time":"11:12"},{"seq":6,"stop_id":"1468_01","name":"めじろ台一丁目","lat":35.646922,"lon":139.311568,"time":"11:14"},{"seq":7,"stop_id":"1469_02","name":"めじろ台駅","lat":35.643338,"lon":139.307563,"time":"11:20"},{"seq":8,"stop_id":"1470_01","name":"めじろ台南","lat":35.640873,"lon":139.308303,"time":"11:20"},{"seq":9,"stop_id":"0294_01","name":"椚田北","lat":35.637633,"lon":139.30991,"time":"11:21"},{"seq":10,"stop_id":"0293_01","name":"椚田","lat":35.633284,"lon":139.312434,"time":"11:22"},{"seq":11,"stop_id":"0516_01","name":"下寺田","lat":35.631917,"lon":139.312172,"time":"11:22"},{"seq":12,"stop_id":"1139_01","name":"榛名橋","lat":35.628841,"lon":139.310451,"time":"11:23"},{"seq":13,"stop_id":"0827_01","name":"寺田東","lat":35.625006,"lon":139.309636,"time":"11:25"},{"seq":14,"stop_id":"0825_01","name":"寺田センター","lat":35.622999,"lon":139.306572,"time":"11:26"},{"seq":15,"stop_id":"0301_00","name":"グリーンヒル寺田","lat":35.621559,"lon":139.302299,"time":"11:27"},{"seq":16,"stop_id":"0233_01","name":"上寺田","lat":35.619841,"lon":139.297362,"time":"11:28"},{"seq":17,"stop_id":"1755_01","name":"東京秋田霊園","lat":35.617997,"lon":139.296766,"time":"11:28"},{"seq":18,"stop_id":"1291_00","name":"法政大学","lat":35.61366,"lon":139.297386,"time":"11:35"}],"trip_counts":{"weekday":95,"saturday":76,"holiday":76}},{"pattern_id":"6-2","direction_id":"1","headsign":"","shape_id":"","trip_count":238,"sample_trip_id":"01_01_0152_04_000062","stop_count":17,"shape_point_count":17,"shape":[[35.61366,139.297386],[35.616903,139.296623],[35.620341,139.297594],[35.621755,139.301622],[35.623032,139.306113],[35.624772,139.3092],[35.629578,139.310614],[35.631832,139.311894],[35.633588,139.312156],[35.637475,139.309752],[35.641063,139.307967],[35.643636,139.307213],[35.646655,139.311614],[35.649871,139.305702],[35.651866,139.306872],[35.65417,139.311165],[35.656164,139.313074]],"stops":[{"seq":1,"stop_id":"1291_00","name":"法政大学","lat":35.61366,"lon":139.297386,"time":"11:42"},{"seq":2,"stop_id":"1755_02","name":"東京秋田霊園","lat":35.616903,"lon":139.296623,"time":"11:43"},{"seq":3,"stop_id":"0233_02","name":"上寺田","lat":35.620341,"lon":139.297594,"time":"11:43"},{"seq":4,"stop_id":"0301_02","name":"グリーンヒル寺田","lat":35.621755,"lon":139.301622,"time":"11:45"},{"seq":5,"stop_id":"0825_02","name":"寺田センター","lat":35.623032,"lon":139.306113,"time":"11:46"},{"seq":6,"stop_id":"0827_00","name":"寺田東","lat":35.624772,"lon":139.3092,"time":"11:48"},{"seq":7,"stop_id":"1139_00","name":"榛名橋","lat":35.629578,"lon":139.310614,"time":"11:49"},{"seq":8,"stop_id":"0516_02","name":"下寺田","lat":35.631832,"lon":139.311894,"time":"11:49"},{"seq":9,"stop_id":"0293_02","name":"椚田","lat":35.633588,"lon":139.312156,"time":"11:50"},{"seq":10,"stop_id":"0294_02","name":"椚田北","lat":35.637475,"lon":139.309752,"time":"11:51"},{"seq":11,"stop_id":"1470_02","name":"めじろ台南","lat":35.641063,"lon":139.307967,"time":"11:52"},{"seq":12,"stop_id":"1469_00","name":"めじろ台駅","lat":35.643636,"lon":139.307213,"time":"11:58"},{"seq":13,"stop_id":"1468_02","name":"めじろ台一丁目","lat":35.646655,"lon":139.311614,"time":"12:00"},{"seq":14,"stop_id":"1530_02","name":"横山中学","lat":35.649871,"lon":139.305702,"time":"12:01"},{"seq":15,"stop_id":"0459_02","name":"散田四丁目","lat":35.651866,"lon":139.306872,"time":"12:02"},{"seq":16,"stop_id":"0458_02","name":"散田三丁目","lat":35.65417,"lon":139.311165,"time":"12:03"},{"seq":17,"stop_id":"1034_00","name":"西八王子駅南口","lat":35.656164,"lon":139.313074,"time":"12:09"}],"trip_counts":{"weekday":90,"saturday":74,"holiday":74}},{"pattern_id":"6-3","direction_id":"0","headsign":"","shape_id":"","trip_count":7,"sample_trip_id":"10_01_0331_04_026651","stop_count":3,"shape_point_count":3,"shape":[[35.656428,139.313157],[35.643518,139.307466],[35.61366,139.297386]],"stops":[{"seq":1,"stop_id":"1034_01","name":"西八王子駅南口","lat":35.656428,"lon":139.313157,"time":"08:38"},{"seq":2,"stop_id":"1469_05","name":"めじろ台駅","lat":35.643518,"lon":139.307466,"time":"08:46"},{"seq":3,"stop_id":"1291_00","name":"法政大学","lat":35.61366,"lon":139.297386,"time":"09:00"}],"trip_counts":{"weekday":7,"saturday":0,"holiday":0}},{"pattern_id":"6-5","direction_id":"0","headsign":"","shape_id":"","trip_count":4,"sample_trip_id":"10_01_0021_11_026661","stop_count":5,"shape_point_count":5,"shape":[[35.656428,139.313157],[35.643518,139.307466],[35.61366,139.297386],[35.614996,139.295057],[35.617308,139.291595]],"stops":[{"seq":1,"stop_id":"1034_01","name":"西八王子駅南口","lat":35.656428,"lon":139.313157,"time":"10:38"},{"seq":2,"stop_id":"1469_05","name":"めじろ台駅","lat":35.643518,"lon":139.307466,"time":"10:46"},{"seq":3,"stop_id":"1291_00","name":"法政大学","lat":35.61366,"lon":139.297386,"time":"11:00"},{"seq":4,"stop_id":"1293_01","name":"法政大学経済学部前","lat":35.614996,"lon":139.295057,"time":"11:01"},{"seq":5,"stop_id":"1294_00","name":"法政大学体育館","lat":35.617308,"lon":139.291595,"time":"11:03"}],"trip_counts":{"weekday":4,"saturday":0,"holiday":0}},{"pattern_id":"6-4","direction_id":"1","headsign":"","shape_id":"","trip_count":1,"sample_trip_id":"10_01_1022_02_026652","stop_count":3,"shape_point_count":3,"shape":[[35.61366,139.297386],[35.643636,139.307213],[35.656164,139.313074]],"stops":[{"seq":1,"stop_id":"1291_00","name":"法政大学","lat":35.61366,"lon":139.297386,"time":"12:58"},{"seq":2,"stop_id":"1469_00","name":"めじろ台駅","lat":35.643636,"lon":139.307213,"time":"13:09"},{"seq":3,"stop_id":"1034_00","name":"西八王子駅南口","lat":35.656164,"lon":139.313074,"time":"13:23"}],"trip_counts":{"weekday":1,"saturday":0,"holiday":0}}],"pattern_count":5},{"route_id":"12","short_name":"日５０","full_short_name":"日５０","long_name":"","color":"#dd1f26","text_color":"#ffffff","patterns":[{"pattern_id":"12-1","direction_id":"0","headsign":"","shape_id":"","trip_count":294,"sample_trip_id":"01_01_0021_09_000121","stop_count":15,"shape_point_count":15,"shape":[[35.656489,139.339308],[35.658949,139.342535],[35.660033,139.34633],[35.662306,139.34973],[35.662635,139.353851],[35.663212,139.3562],[35.664398,139.35968],[35.66568,139.363033],[35.667776,139.368081],[35.669235,139.371608],[35.670862,139.376079],[35.672204,139.380044],[35.672954,139.382365],[35.676157,139.386463],[35.67899,139.393028]],"stops":[{"seq":1,"stop_id":"1107_01","name":"八王子駅北口","lat":35.656489,"lon":139.339308,"time":"22:00"},{"seq":2,"stop_id":"0318_00","name":"京王八王子駅","lat":35.658949,"lon":139.342535,"time":"22:01"},{"seq":3,"stop_id":"1442_01","name":"明神町","lat":35.660033,"lon":139.34633,"time":"22:03"},{"seq":4,"stop_id":"0149_01","name":"大和田","lat":35.662306,"lon":139.34973,"time":"22:05"},{"seq":5,"stop_id":"0151_01","name":"大和田坂下","lat":35.662635,"lon":139.353851,"time":"22:06"},{"seq":6,"stop_id":"0050_01","name":"石川入口","lat":35.663212,"lon":139.3562,"time":"22:07"},{"seq":7,"stop_id":"0152_01","name":"大和田二丁目","lat":35.664398,"lon":139.35968,"time":"22:08"},{"seq":8,"stop_id":"0150_01","name":"大和田坂上","lat":35.66568,"lon":139.363033,"time":"22:10"},{"seq":9,"stop_id":"0700_01","name":"高倉町","lat":35.667776,"lon":139.368081,"time":"22:10"},{"seq":10,"stop_id":"0391_01","name":"コニカミノルタ前","lat":35.669235,"lon":139.371608,"time":"22:11"},{"seq":11,"stop_id":"1196_01","name":"日野台","lat":35.670862,"lon":139.376079,"time":"22:12"},{"seq":12,"stop_id":"1189_01","name":"日野自動車西門","lat":35.672204,"lon":139.380044,"time":"22:13"},{"seq":13,"stop_id":"1190_01","name":"日野自動車前","lat":35.672954,"lon":139.382365,"time":"22:14"},{"seq":14,"stop_id":"1187_01","name":"日野坂","lat":35.676157,"lon":139.386463,"time":"22:16"},{"seq":15,"stop_id":"1183_00","name":"日野駅","lat":35.67899,"lon":139.393028,"time":"22:20"}],"trip_counts":{"weekday":114,"saturday":90,"holiday":90}},{"pattern_id":"12-2","direction_id":"1","headsign":"","shape_id":"","trip_count":291,"sample_trip_id":"01_01_0021_10_000122","stop_count":15,"shape_point_count":15,"shape":[[35.679268,139.392889],[35.675383,139.386263],[35.673113,139.383134],[35.671426,139.378121],[35.670469,139.37538],[35.669028,139.371517],[35.66745,139.367832],[35.665269,139.362528],[35.663968,139.359034],[35.66299,139.356273],[35.662469,139.354024],[35.662136,139.349939],[35.660381,139.346948],[35.657924,139.342817],[35.656529,139.339123]],"stops":[{"seq":1,"stop_id":"1183_01","name":"日野駅","lat":35.679268,"lon":139.392889,"time":"22:30"},{"seq":2,"stop_id":"1187_02","name":"日野坂","lat":35.675383,"lon":139.386263,"time":"22:31"},{"seq":3,"stop_id":"1190_00","name":"日野自動車前","lat":35.673113,"lon":139.383134,"time":"22:32"},{"seq":4,"stop_id":"1189_02","name":"日野自動車西門","lat":35.671426,"lon":139.378121,"time":"22:33"},{"seq":5,"stop_id":"1196_00","name":"日野台","lat":35.670469,"lon":139.37538,"time":"22:34"},{"seq":6,"stop_id":"0391_02","name":"コニカミノルタ前","lat":35.669028,"lon":139.371517,"time":"22:35"},{"seq":7,"stop_id":"0700_02","name":"高倉町","lat":35.66745,"lon":139.367832,"time":"22:36"},{"seq":8,"stop_id":"0150_02","name":"大和田坂上","lat":35.665269,"lon":139.362528,"time":"22:38"},{"seq":9,"stop_id":"0152_02","name":"大和田二丁目","lat":35.663968,"lon":139.359034,"time":"22:39"},{"seq":10,"stop_id":"0050_02","name":"石川入口","lat":35.66299,"lon":139.356273,"time":"22:40"},{"seq":11,"stop_id":"0151_02","name":"大和田坂下","lat":35.662469,"lon":139.354024,"time":"22:40"},{"seq":12,"stop_id":"0149_02","name":"大和田","lat":35.662136,"lon":139.349939,"time":"22:41"},{"seq":13,"stop_id":"1442_02","name":"明神町","lat":35.660381,"lon":139.346948,"time":"22:42"},{"seq":14,"stop_id":"0318_05","name":"京王八王子駅","lat":35.657924,"lon":139.342817,"time":"22:44"},{"seq":15,"stop_id":"1107_00","name":"八王子駅北口","lat":35.656529,"lon":139.339123,"time":"22:50"}],"trip_counts":{"weekday":111,"saturday":90,"holiday":90}},{"pattern_id":"12-3","direction_id":"0","headsign":"","shape_id":"","trip_count":6,"sample_trip_id":"01_01_0181_02_000341","stop_count":8,"shape_point_count":8,"shape":[[35.665269,139.362528],[35.663968,139.359034],[35.66299,139.356273],[35.662469,139.354024],[35.662136,139.349939],[35.660381,139.346948],[35.657924,139.342817],[35.656529,139.339123]],"stops":[{"seq":1,"stop_id":"0150_02","name":"大和田坂上","lat":35.665269,"lon":139.362528,"time":"06:20"},{"seq":2,"stop_id":"0152_02","name":"大和田二丁目","lat":35.663968,"lon":139.359034,"time":"06:20"},{"seq":3,"stop_id":"0050_02","name":"石川入口","lat":35.66299,"lon":139.356273,"time":"06:21"},{"seq":4,"stop_id":"0151_02","name":"大和田坂下","lat":35.662469,"lon":139.354024,"time":"06:22"},{"seq":5,"stop_id":"0149_02","name":"大和田","lat":35.662136,"lon":139.349939,"time":"06:23"},{"seq":6,"stop_id":"1442_02","name":"明神町","lat":35.660381,"lon":139.346948,"time":"06:24"},{"seq":7,"stop_id":"0318_05","name":"京王八王子駅","lat":35.657924,"lon":139.342817,"time":"06:26"},{"seq":8,"stop_id":"1107_00","name":"八王子駅北口","lat":35.656529,"lon":139.339123,"time":"06:31"}],"trip_counts":{"weekday":2,"saturday":2,"holiday":2}},{"pattern_id":"12-4","direction_id":"0","headsign":"","shape_id":"","trip_count":1,"sample_trip_id":"01_01_0741_02_025711","stop_count":13,"shape_point_count":13,"shape":[[35.660033,139.34633],[35.662306,139.34973],[35.662635,139.353851],[35.663212,139.3562],[35.664398,139.35968],[35.66568,139.363033],[35.667776,139.368081],[35.669235,139.371608],[35.670862,139.376079],[35.672204,139.380044],[35.672954,139.382365],[35.676157,139.386463],[35.67899,139.393028]],"stops":[{"seq":1,"stop_id":"1442_01","name":"明神町","lat":35.660033,"lon":139.34633,"time":"06:07"},{"seq":2,"stop_id":"0149_01","name":"大和田","lat":35.662306,"lon":139.34973,"time":"06:08"},{"seq":3,"stop_id":"0151_01","name":"大和田坂下","lat":35.662635,"lon":139.353851,"time":"06:09"},{"seq":4,"stop_id":"0050_01","name":"石川入口","lat":35.663212,"lon":139.3562,"time":"06:10"},{"seq":5,"stop_id":"0152_01","name":"大和田二丁目","lat":35.664398,"lon":139.35968,"time":"06:11"},{"seq":6,"stop_id":"0150_01","name":"大和田坂上","lat":35.66568,"lon":139.363033,"time":"06:13"},{"seq":7,"stop_id":"0700_01","name":"高倉町","lat":35.667776,"lon":139.368081,"time":"06:13"},{"seq":8,"stop_id":"0391_01","name":"コニカミノルタ前","lat":35.669235,"lon":139.371608,"time":"06:14"},{"seq":9,"stop_id":"1196_01","name":"日野台","lat":35.670862,"lon":139.376079,"time":"06:15"},{"seq":10,"stop_id":"1189_01","name":"日野自動車西門","lat":35.672204,"lon":139.380044,"time":"06:16"},{"seq":11,"stop_id":"1190_01","name":"日野自動車前","lat":35.672954,"lon":139.382365,"time":"06:17"},{"seq":12,"stop_id":"1187_01","name":"日野坂","lat":35.676157,"lon":139.386463,"time":"06:19"},{"seq":13,"stop_id":"1183_00","name":"日野駅","lat":35.67899,"lon":139.393028,"time":"06:23"}],"trip_counts":{"weekday":1,"saturday":0,"holiday":0}}],"pattern_count":4},{"route_id":"12深夜","short_name":"日５０深夜","full_short_name":"日５０深夜","long_name":"","color":"#dd1f26","text_color":"#ffffff","patterns":[{"pattern_id":"12深夜-1","direction_id":"1","headsign":"","shape_id":"","trip_count":1,"sample_trip_id":"01_01_0021_12_009542","stop_count":15,"shape_point_count":15,"shape":[[35.679268,139.392889],[35.675383,139.386263],[35.673113,139.383134],[35.671426,139.378121],[35.670469,139.37538],[35.669028,139.371517],[35.66745,139.367832],[35.665269,139.362528],[35.663968,139.359034],[35.66299,139.356273],[35.662469,139.354024],[35.662136,139.349939],[35.660381,139.346948],[35.657924,139.342817],[35.656529,139.339123]],"stops":[{"seq":1,"stop_id":"1183_01","name":"日野駅","lat":35.679268,"lon":139.392889,"time":"23:28"},{"seq":2,"stop_id":"1187_02","name":"日野坂","lat":35.675383,"lon":139.386263,"time":"23:29"},{"seq":3,"stop_id":"1190_00","name":"日野自動車前","lat":35.673113,"lon":139.383134,"time":"23:30"},{"seq":4,"stop_id":"1189_02","name":"日野自動車西門","lat":35.671426,"lon":139.378121,"time":"23:31"},{"seq":5,"stop_id":"1196_00","name":"日野台","lat":35.670469,"lon":139.37538,"time":"23:32"},{"seq":6,"stop_id":"0391_02","name":"コニカミノルタ前","lat":35.669028,"lon":139.371517,"time":"23:32"},{"seq":7,"stop_id":"0700_02","name":"高倉町","lat":35.66745,"lon":139.367832,"time":"23:34"},{"seq":8,"stop_id":"0150_02","name":"大和田坂上","lat":35.665269,"lon":139.362528,"time":"23:35"},{"seq":9,"stop_id":"0152_02","name":"大和田二丁目","lat":35.663968,"lon":139.359034,"time":"23:36"},{"seq":10,"stop_id":"0050_02","name":"石川入口","lat":35.66299,"lon":139.356273,"time":"23:37"},{"seq":11,"stop_id":"0151_02","name":"大和田坂下","lat":35.662469,"lon":139.354024,"time":"23:37"},{"seq":12,"stop_id":"0149_02","name":"大和田","lat":35.662136,"lon":139.349939,"time":"23:38"},{"seq":13,"stop_id":"1442_02","name":"明神町","lat":35.660381,"lon":139.346948,"time":"23:39"},{"seq":14,"stop_id":"0318_05","name":"京王八王子駅","lat":35.657924,"lon":139.342817,"time":"23:40"},{"seq":15,"stop_id":"1107_00","name":"八王子駅北口","lat":35.656529,"lon":139.339123,"time":"23:46"}],"trip_counts":{"weekday":1,"saturday":0,"holiday":0}}],"pattern_count":1},{"route_id":"15","short_name":"豊５６","full_short_name":"豊５６","long_name":"","color":"#dd1f26","text_color":"#ffffff","patterns":[{"pattern_id":"15-1","direction_id":"0","headsign":"","shape_id":"","trip_count":95,"sample_trip_id":"01_01_0041_04_000151","stop_count":14,"shape_point_count":14,"shape":[[35.656464,139.339435],[35.658949,139.342535],[35.660033,139.34633],[35.662306,139.34973],[35.662635,139.353851],[35.663212,139.3562],[35.664398,139.35968],[35.66568,139.363033],[35.665419,139.368983],[35.66627,139.373088],[35.667043,139.37766],[35.663758,139.379273],[35.662264,139.379772],[35.660365,139.381134]],"stops":[{"seq":1,"stop_id":"1107_03","name":"八王子駅北口","lat":35.656464,"lon":139.339435,"time":"17:30"},{"seq":2,"stop_id":"0318_00","name":"京王八王子駅","lat":35.658949,"lon":139.342535,"time":"17:31"},{"seq":3,"stop_id":"1442_01","name":"明神町","lat":35.660033,"lon":139.34633,"time":"17:33"},{"seq":4,"stop_id":"0149_01","name":"大和田","lat":35.662306,"lon":139.34973,"time":"17:35"},{"seq":5,"stop_id":"0151_01","name":"大和田坂下","lat":35.662635,"lon":139.353851,"time":"17:37"},{"seq":6,"stop_id":"0050_01","name":"石川入口","lat":35.663212,"lon":139.3562,"time":"17:38"},{"seq":7,"stop_id":"0152_01","name":"大和田二丁目","lat":35.664398,"lon":139.35968,"time":"17:39"},{"seq":8,"stop_id":"0150_01","name":"大和田坂上","lat":35.66568,"lon":139.363033,"time":"17:41"},{"seq":9,"stop_id":"0532_01","name":"東京都立大学入口","lat":35.665419,"lon":139.368983,"time":"17:43"},{"seq":10,"stop_id":"0392_01","name":"コニカミノルタ南門","lat":35.66627,"lon":139.373088,"time":"17:44"},{"seq":11,"stop_id":"0557_01","name":"市立病院入口","lat":35.667043,"lon":139.37766,"time":"17:46"},{"seq":12,"stop_id":"0683_00","name":"第二中学校","lat":35.663758,"lon":139.379273,"time":"17:47"},{"seq":13,"stop_id":"0353_01","name":"イオンモール多摩平の森","lat":35.662264,"lon":139.379772,"time":"17:48"},{"seq":14,"stop_id":"0915_00","name":"豊田駅北口","lat":35.660365,"lon":139.381134,"time":"17:54"}],"trip_counts":{"weekday":35,"saturday":30,"holiday":30}},{"pattern_id":"15-2","direction_id":"1","headsign":"","shape_id":"","trip_count":95,"sample_trip_id":"01_01_0041_05_000152","stop_count":14,"shape_point_count":14,"shape":[[35.659871,139.381209],[35.66321,139.379197],[35.664131,139.37891],[35.666762,139.377619],[35.666185,139.373456],[35.665371,139.369833],[35.665269,139.362528],[35.663968,139.359034],[35.66299,139.356273],[35.662469,139.354024],[35.662136,139.349939],[35.660381,139.346948],[35.657924,139.342817],[35.656529,139.339123]],"stops":[{"seq":1,"stop_id":"0915_01","name":"豊田駅北口","lat":35.659871,"lon":139.381209,"time":"18:00"},{"seq":2,"stop_id":"0353_02","name":"イオンモール多摩平の森","lat":35.66321,"lon":139.379197,"time":"18:00"},{"seq":3,"stop_id":"0683_02","name":"第二中学校","lat":35.664131,"lon":139.37891,"time":"18:01"},{"seq":4,"stop_id":"0557_02","name":"市立病院入口","lat":35.666762,"lon":139.377619,"time":"18:02"},{"seq":5,"stop_id":"0392_02","name":"コニカミノルタ南門","lat":35.666185,"lon":139.373456,"time":"18:04"},{"seq":6,"stop_id":"0532_02","name":"東京都立大学入口","lat":35.665371,"lon":139.369833,"time":"18:05"},{"seq":7,"stop_id":"0150_02","name":"大和田坂上","lat":35.665269,"lon":139.362528,"time":"18:09"},{"seq":8,"stop_id":"0152_02","name":"大和田二丁目","lat":35.663968,"lon":139.359034,"time":"18:10"},{"seq":9,"stop_id":"0050_02","name":"石川入口","lat":35.66299,"lon":139.356273,"time":"18:11"},{"seq":10,"stop_id":"0151_02","name":"大和田坂下","lat":35.662469,"lon":139.354024,"time":"18:12"},{"seq":11,"stop_id":"0149_02","name":"大和田","lat":35.662136,"lon":139.349939,"time":"18:14"},{"seq":12,"stop_id":"1442_02","name":"明神町","lat":35.660381,"lon":139.346948,"time":"18:16"},{"seq":13,"stop_id":"0318_05","name":"京王八王子駅","lat":35.657924,"lon":139.342817,"time":"18:18"},{"seq":14,"stop_id":"1107_00","name":"八王子駅北口","lat":35.656529,"lon":139.339123,"time":"18:25"}],"trip_counts":{"weekday":35,"saturday":30,"holiday":30}},{"pattern_id":"15-3","direction_id":"0","headsign":"","shape_id":"","trip_count":4,"sample_trip_id":"01_01_0441_02_025701","stop_count":12,"shape_point_count":12,"shape":[[35.660033,139.34633],[35.662306,139.34973],[35.662635,139.353851],[35.663212,139.3562],[35.664398,139.35968],[35.66568,139.363033],[35.665419,139.368983],[35.66627,139.373088],[35.667043,139.37766],[35.663758,139.379273],[35.662264,139.379772],[35.660365,139.381134]],"stops":[{"seq":1,"stop_id":"1442_01","name":"明神町","lat":35.660033,"lon":139.34633,"time":"05:51"},{"seq":2,"stop_id":"0149_01","name":"大和田","lat":35.662306,"lon":139.34973,"time":"05:52"},{"seq":3,"stop_id":"0151_01","name":"大和田坂下","lat":35.662635,"lon":139.353851,"time":"05:53"},{"seq":4,"stop_id":"0050_01","name":"石川入口","lat":35.663212,"lon":139.3562,"time":"05:54"},{"seq":5,"stop_id":"0152_01","name":"大和田二丁目","lat":35.664398,"lon":139.35968,"time":"05:55"},{"seq":6,"stop_id":"0150_01","name":"大和田坂上","lat":35.66568,"lon":139.363033,"time":"05:57"},{"seq":7,"stop_id":"0532_01","name":"東京都立大学入口","lat":35.665419,"lon":139.368983,"time":"05:58"},{"seq":8,"stop_id":"0392_01","name":"コニカミノルタ南門","lat":35.66627,"lon":139.373088,"time":"05:59"},{"seq":9,"stop_id":"0557_01","name":"市立病院入口","lat":35.667043,"lon":139.37766,"time":"06:01"},{"seq":10,"stop_id":"0683_00","name":"第二中学校","lat":35.663758,"lon":139.379273,"time":"06:02"},{"seq":11,"stop_id":"0353_01","name":"イオンモール多摩平の森","lat":35.662264,"lon":139.379772,"time":"06:03"},{"seq":12,"stop_id":"0915_00","name":"豊田駅北口","lat":35.660365,"lon":139.381134,"time":"06:08"}],"trip_counts":{"weekday":2,"saturday":1,"holiday":1}}],"pattern_count":3},{"route_id":"16","short_name":"豊４１","full_short_name":"豊４１","long_name":"","color":"#dd1f26","text_color":"#ffffff","patterns":[{"pattern_id":"16-1","direction_id":"0","headsign":"","shape_id":"","trip_count":247,"sample_trip_id":"01_01_0021_05_000161","stop_count":12,"shape_point_count":12,"shape":[[35.659842,139.381455],[35.658641,139.374729],[35.658486,139.372309],[35.655025,139.371978],[35.653667,139.370186],[35.655195,139.367878],[35.656828,139.36795],[35.658579,139.368027],[35.659136,139.369532],[35.65897,139.371571],[35.658779,139.374761],[35.660365,139.381134]],"stops":[{"seq":1,"stop_id":"0915_03","name":"豊田駅北口","lat":35.659842,"lon":139.381455,"time":"19:51"},{"seq":2,"stop_id":"1242_01","name":"富士町","lat":35.658641,"lon":139.374729,"time":"19:53"},{"seq":3,"stop_id":"0013_01","name":"旭が丘","lat":35.658486,"lon":139.372309,"time":"19:55"},{"seq":4,"stop_id":"0855_01","name":"MFLP日野東口","lat":35.655025,"lon":139.371978,"time":"19:56"},{"seq":5,"stop_id":"0015_01","name":"旭が丘三丁目","lat":35.653667,"lon":139.370186,"time":"19:56"},{"seq":6,"stop_id":"1217_01","name":"平山工業団地","lat":35.655195,"lon":139.367878,"time":"19:58"},{"seq":7,"stop_id":"0019_01","name":"旭が丘四丁目","lat":35.656828,"lon":139.36795,"time":"20:00"},{"seq":8,"stop_id":"0017_00","name":"旭が丘中央公園","lat":35.658579,"lon":139.368027,"time":"20:00"},{"seq":9,"stop_id":"1707_01","name":"旭が丘二丁目","lat":35.659136,"lon":139.369532,"time":"20:01"},{"seq":10,"stop_id":"0013_02","name":"旭が丘","lat":35.65897,"lon":139.371571,"time":"20:02"},{"seq":11,"stop_id":"1242_02","name":"富士町","lat":35.658779,"lon":139.374761,"time":"20:03"},{"seq":12,"stop_id":"0915_00","name":"豊田駅北口","lat":35.660365,"lon":139.381134,"time":"20:10"}],"trip_counts":{"weekday":101,"saturday":73,"holiday":73}},{"pattern_id":"16-2","direction_id":"0","headsign":"","shape_id":"","trip_count":4,"sample_trip_id":"01_01_0041_15_000171","stop_count":8,"shape_point_count":8,"shape":[[35.659842,139.381455],[35.658641,139.374729],[35.658486,139.372309],[35.655025,139.371978],[35.653667,139.370186],[35.655195,139.367878],[35.656828,139.36795],[35.658579,139.368027]],"stops":[{"seq":1,"stop_id":"0915_03","name":"豊田駅北口","lat":35.659842,"lon":139.381455,"time":"22:40"},{"seq":2,"stop_id":"1242_01","name":"富士町","lat":35.658641,"lon":139.374729,"time":"22:42"},{"seq":3,"stop_id":"0013_01","name":"旭が丘","lat":35.658486,"lon":139.372309,"time":"22:42"},{"seq":4,"stop_id":"0855_01","name":"MFLP日野東口","lat":35.655025,"lon":139.371978,"time":"22:43"},{"seq":5,"stop_id":"0015_01","name":"旭が丘三丁目","lat":35.653667,"lon":139.370186,"time":"22:44"},{"seq":6,"stop_id":"1217_01","name":"平山工業団地","lat":35.655195,"lon":139.367878,"time":"22:45"},{"seq":7,"stop_id":"0019_01","name":"旭が丘四丁目","lat":35.656828,"lon":139.36795,"time":"22:45"},{"seq":8,"stop_id":"0017_00","name":"旭が丘中央公園","lat":35.658579,"lon":139.368027,"time":"22:47"}],"trip_counts":{"weekday":2,"saturday":1,"holiday":1}}],"pattern_count":2},{"route_id":"19","short_name":"八５９","full_short_name":"八５９","long_name":"","color":"#dd1f26","text_color":"#ffffff","patterns":[{"pattern_id":"19-1","direction_id":"1","headsign":"","shape_id":"","trip_count":2,"sample_trip_id":"01_01_0591_06_000192","stop_count":9,"shape_point_count":9,"shape":[[35.671413,139.368357],[35.665269,139.362528],[35.663968,139.359034],[35.66299,139.356273],[35.662469,139.354024],[35.662136,139.349939],[35.660381,139.346948],[35.657924,139.342817],[35.656529,139.339123]],"stops":[{"seq":1,"stop_id":"1109_02","name":"八王子工業団地","lat":35.671413,"lon":139.368357,"time":"18:31"},{"seq":2,"stop_id":"0150_02","name":"大和田坂上","lat":35.665269,"lon":139.362528,"time":"18:34"},{"seq":3,"stop_id":"0152_02","name":"大和田二丁目","lat":35.663968,"lon":139.359034,"time":"18:35"},{"seq":4,"stop_id":"0050_02","name":"石川入口","lat":35.66299,"lon":139.356273,"time":"18:36"},{"seq":5,"stop_id":"0151_02","name":"大和田坂下","lat":35.662469,"lon":139.354024,"time":"18:36"},{"seq":6,"stop_id":"0149_02","name":"大和田","lat":35.662136,"lon":139.349939,"time":"18:38"},{"seq":7,"stop_id":"1442_02","name":"明神町","lat":35.660381,"lon":139.346948,"time":"18:39"},{"seq":8,"stop_id":"0318_05","name":"京王八王子駅","lat":35.657924,"lon":139.342817,"time":"18:41"},{"seq":9,"stop_id":"1107_00","name":"八王子駅北口","lat":35.656529,"lon":139.339123,"time":"18:49"}],"trip_counts":{"weekday":2,"saturday":0,"holiday":0}}],"pattern_count":1},{"route_id":"20","short_name":"八５８","full_short_name":"八５８","long_name":"","color":"#dd1f26","text_color":"#ffffff","patterns":[{"pattern_id":"20-1","direction_id":"0","headsign":"","shape_id":"","trip_count":3,"sample_trip_id":"01_01_0321_04_000201","stop_count":15,"shape_point_count":15,"shape":[[35.656489,139.339308],[35.658949,139.342535],[35.660033,139.34633],[35.662306,139.34973],[35.662635,139.353851],[35.663212,139.3562],[35.664398,139.35968],[35.66568,139.363033],[35.671665,139.368287],[35.672973,139.373791],[35.670862,139.376079],[35.672204,139.380044],[35.672954,139.382365],[35.676157,139.386463],[35.67899,139.393028]],"stops":[{"seq":1,"stop_id":"1107_01","name":"八王子駅北口","lat":35.656489,"lon":139.339308,"time":"17:19"},{"seq":2,"stop_id":"0318_00","name":"京王八王子駅","lat":35.658949,"lon":139.342535,"time":"17:20"},{"seq":3,"stop_id":"1442_01","name":"明神町","lat":35.660033,"lon":139.34633,"time":"17:22"},{"seq":4,"stop_id":"0149_01","name":"大和田","lat":35.662306,"lon":139.34973,"time":"17:24"},{"seq":5,"stop_id":"0151_01","name":"大和田坂下","lat":35.662635,"lon":139.353851,"time":"17:26"},{"seq":6,"stop_id":"0050_01","name":"石川入口","lat":35.663212,"lon":139.3562,"time":"17:27"},{"seq":7,"stop_id":"0152_01","name":"大和田二丁目","lat":35.664398,"lon":139.35968,"time":"17:28"},{"seq":8,"stop_id":"0150_01","name":"大和田坂上","lat":35.66568,"lon":139.363033,"time":"17:30"},{"seq":9,"stop_id":"1109_00","name":"八王子工業団地","lat":35.671665,"lon":139.368287,"time":"17:33"},{"seq":10,"stop_id":"1198_01","name":"日野台五丁目","lat":35.672973,"lon":139.373791,"time":"17:34"},{"seq":11,"stop_id":"1196_01","name":"日野台","lat":35.670862,"lon":139.376079,"time":"17:36"},{"seq":12,"stop_id":"1189_01","name":"日野自動車西門","lat":35.672204,"lon":139.380044,"time":"17:37"},{"seq":13,"stop_id":"1190_01","name":"日野自動車前","lat":35.672954,"lon":139.382365,"time":"17:38"},{"seq":14,"stop_id":"1187_01","name":"日野坂","lat":35.676157,"lon":139.386463,"time":"17:39"},{"seq":15,"stop_id":"1183_00","name":"日野駅","lat":35.67899,"lon":139.393028,"time":"17:48"}],"trip_counts":{"weekday":3,"saturday":0,"holiday":0}},{"pattern_id":"20-2","direction_id":"1","headsign":"","shape_id":"","trip_count":1,"sample_trip_id":"01_01_0321_05_000202","stop_count":14,"shape_point_count":14,"shape":[[35.679268,139.392889],[35.675383,139.386263],[35.673113,139.383134],[35.671426,139.378121],[35.6725,139.373819],[35.671413,139.368357],[35.665269,139.362528],[35.663968,139.359034],[35.66299,139.356273],[35.662469,139.354024],[35.662136,139.349939],[35.660381,139.346948],[35.657924,139.342817],[35.656529,139.339123]],"stops":[{"seq":1,"stop_id":"1183_01","name":"日野駅","lat":35.679268,"lon":139.392889,"time":"17:56"},{"seq":2,"stop_id":"1187_02","name":"日野坂","lat":35.675383,"lon":139.386263,"time":"17:57"},{"seq":3,"stop_id":"1190_00","name":"日野自動車前","lat":35.673113,"lon":139.383134,"time":"17:58"},{"seq":4,"stop_id":"1189_02","name":"日野自動車西門","lat":35.671426,"lon":139.378121,"time":"18:00"},{"seq":5,"stop_id":"1198_02","name":"日野台五丁目","lat":35.6725,"lon":139.373819,"time":"18:01"},{"seq":6,"stop_id":"1109_02","name":"八王子工業団地","lat":35.671413,"lon":139.368357,"time":"18:04"},{"seq":7,"stop_id":"0150_02","name":"大和田坂上","lat":35.665269,"lon":139.362528,"time":"18:08"},{"seq":8,"stop_id":"0152_02","name":"大和田二丁目","lat":35.663968,"lon":139.359034,"time":"18:09"},{"seq":9,"stop_id":"0050_02","name":"石川入口","lat":35.66299,"lon":139.356273,"time":"18:11"},{"seq":10,"stop_id":"0151_02","name":"大和田坂下","lat":35.662469,"lon":139.354024,"time":"18:12"},{"seq":11,"stop_id":"0149_02","name":"大和田","lat":35.662136,"lon":139.349939,"time":"18:14"},{"seq":12,"stop_id":"1442_02","name":"明神町","lat":35.660381,"lon":139.346948,"time":"18:16"},{"seq":13,"stop_id":"0318_05","name":"京王八王子駅","lat":35.657924,"lon":139.342817,"time":"18:19"},{"seq":14,"stop_id":"1107_00","name":"八王子駅北口","lat":35.656529,"lon":139.339123,"time":"18:26"}],"trip_counts":{"weekday":1,"saturday":0,"holiday":0}}],"pattern_count":2},{"route_id":"25","short_name":"高２３","full_short_name":"高２３","long_name":"","color":"#dd1f26","text_color":"#ffffff","patterns":[{"pattern_id":"25-4","direction_id":"1","headsign":"","shape_id":"","trip_count":139,"sample_trip_id":"11_01_0103_06_018202","stop_count":8,"shape_point_count":8,"shape":[[35.643878,139.419913],[35.645657,139.418934],[35.64667,139.418861],[35.649096,139.4183],[35.654121,139.41524],[35.658552,139.41339],[35.660811,139.414727],[35.661822,139.413229]],"stops":[{"seq":1,"stop_id":"0819_00","name":"帝京大学構内","lat":35.643878,"lon":139.419913,"time":"17:33"},{"seq":2,"stop_id":"1480_02","name":"百草団地南","lat":35.645657,"lon":139.418934,"time":"17:35"},{"seq":3,"stop_id":"1479_02","name":"百草団地入口","lat":35.64667,"lon":139.418861,"time":"17:35"},{"seq":4,"stop_id":"1476_02","name":"百草センター","lat":35.649096,"lon":139.4183,"time":"17:36"},{"seq":5,"stop_id":"0703_02","name":"高幡台団地","lat":35.654121,"lon":139.41524,"time":"17:38"},{"seq":6,"stop_id":"0702_02","name":"高幡十字路","lat":35.658552,"lon":139.41339,"time":"17:41"},{"seq":7,"stop_id":"1623_00","name":"モノレール駅入口","lat":35.660811,"lon":139.414727,"time":"17:44"},{"seq":8,"stop_id":"0706_00","name":"高幡不動駅","lat":35.661822,"lon":139.413229,"time":"17:47"}],"trip_counts":{"weekday":55,"saturday":42,"holiday":42}},{"pattern_id":"25-3","direction_id":"0","headsign":"","shape_id":"","trip_count":139,"sample_trip_id":"11_01_0103_05_018201","stop_count":7,"shape_point_count":7,"shape":[[35.660625,139.413434],[35.658297,139.413444],[35.654162,139.415458],[35.649304,139.4185],[35.646632,139.418984],[35.645625,139.419089],[35.643878,139.419913]],"stops":[{"seq":1,"stop_id":"0706_05","name":"高幡不動駅","lat":35.660625,"lon":139.413434,"time":"17:15"},{"seq":2,"stop_id":"0702_01","name":"高幡十字路","lat":35.658297,"lon":139.413444,"time":"17:17"},{"seq":3,"stop_id":"0703_01","name":"高幡台団地","lat":35.654162,"lon":139.415458,"time":"17:19"},{"seq":4,"stop_id":"1476_01","name":"百草センター","lat":35.649304,"lon":139.4185,"time":"17:21"},{"seq":5,"stop_id":"1479_01","name":"百草団地入口","lat":35.646632,"lon":139.418984,"time":"17:22"},{"seq":6,"stop_id":"1480_01","name":"百草団地南","lat":35.645625,"lon":139.419089,"time":"17:23"},{"seq":7,"stop_id":"0819_00","name":"帝京大学構内","lat":35.643878,"lon":139.419913,"time":"17:27"}],"trip_counts":{"weekday":55,"saturday":42,"holiday":42}},{"pattern_id":"25-1","direction_id":"0","headsign":"","shape_id":"","trip_count":113,"sample_trip_id":"10_01_0021_04_000251","stop_count":2,"shape_point_count":2,"shape":[[35.641281,139.283973],[35.629,139.280674]],"stops":[{"seq":1,"stop_id":"0697_01","name":"高尾駅南口","lat":35.641281,"lon":139.283973,"time":"08:30"},{"seq":2,"stop_id":"0716_00","name":"拓殖大学","lat":35.629,"lon":139.280674,"time":"08:40"}],"trip_counts":{"weekday":61,"saturday":26,"holiday":26}},{"pattern_id":"25-2","direction_id":"1","headsign":"","shape_id":"","trip_count":105,"sample_trip_id":"10_01_0021_05_000252","stop_count":2,"shape_point_count":2,"shape":[[35.629266,139.281093],[35.641834,139.283642]],"stops":[{"seq":1,"stop_id":"0716_01","name":"拓殖大学","lat":35.629266,"lon":139.281093,"time":"08:45"},{"seq":2,"stop_id":"0697_00","name":"高尾駅南口","lat":35.641834,"lon":139.283642,"time":"09:00"}],"trip_counts":{"weekday":55,"saturday":25,"holiday":25}}],"pattern_count":4},{"route_id":"27","short_name":"高２５","full_short_name":"高２５","long_name":"","color":"#dd1f26","text_color":"#ffffff","patterns":[{"pattern_id":"27-4","direction_id":"0","headsign":"","shape_id":"","trip_count":6,"sample_trip_id":"11_01_0772_12_025151","stop_count":11,"shape_point_count":11,"shape":[[35.661822,139.413229],[35.658297,139.413444],[35.654162,139.415458],[35.649304,139.4185],[35.646547,139.418073],[35.64667,139.418861],[35.650279,139.420581],[35.651927,139.4214],[35.653741,139.423085],[35.655985,139.424712],[35.657942,139.424603]],"stops":[{"seq":1,"stop_id":"0706_00","name":"高幡不動駅","lat":35.661822,"lon":139.413229,"time":"23:02"},{"seq":2,"stop_id":"0702_01","name":"高幡十字路","lat":35.658297,"lon":139.413444,"time":"23:04"},{"seq":3,"stop_id":"0703_01","name":"高幡台団地","lat":35.654162,"lon":139.415458,"time":"23:06"},{"seq":4,"stop_id":"1476_01","name":"百草センター","lat":35.649304,"lon":139.4185,"time":"23:08"},{"seq":5,"stop_id":"1478_00","name":"百草団地","lat":35.646547,"lon":139.418073,"time":"23:10"},{"seq":6,"stop_id":"1479_02","name":"百草団地入口","lat":35.64667,"lon":139.418861,"time":"23:10"},{"seq":7,"stop_id":"1473_03","name":"百草園住宅","lat":35.650279,"lon":139.420581,"time":"23:11"},{"seq":8,"stop_id":"1477_02","name":"百草台公園","lat":35.651927,"lon":139.4214,"time":"23:12"},{"seq":9,"stop_id":"0991_02","name":"七生緑小学校","lat":35.653741,"lon":139.423085,"time":"23:13"},{"seq":10,"stop_id":"1370_02","name":"三沢台","lat":35.655985,"lon":139.424712,"time":"23:13"},{"seq":11,"stop_id":"1371_00","name":"三沢台下","lat":35.657942,"lon":139.424603,"time":"23:17"}],"trip_counts":{"weekday":2,"saturday":2,"holiday":2}},{"pattern_id":"27-2","direction_id":"1","headsign":"","shape_id":"","trip_count":6,"sample_trip_id":"10_01_0063_02_000272","stop_count":5,"shape_point_count":5,"shape":[[35.631056,139.290033],[35.631028,139.287394],[35.633821,139.287176],[35.638001,139.28736],[35.641834,139.283642]],"stops":[{"seq":1,"stop_id":"0089_00","name":"医療センター","lat":35.631056,"lon":139.290033,"time":"15:34"},{"seq":2,"stop_id":"0253_02","name":"北館ヶ丘","lat":35.631028,"lon":139.287394,"time":"15:35"},{"seq":3,"stop_id":"0231_02","name":"上館","lat":35.633821,"lon":139.287176,"time":"15:37"},{"seq":4,"stop_id":"1098_02","name":"狭間町","lat":35.638001,"lon":139.28736,"time":"15:40"},{"seq":5,"stop_id":"0697_00","name":"高尾駅南口","lat":35.641834,"lon":139.283642,"time":"15:47"}],"trip_counts":{"weekday":6,"saturday":0,"holiday":0}},{"pattern_id":"27-3","direction_id":"0","headsign":"","shape_id":"","trip_count":4,"sample_trip_id":"11_02_0313_06_018251","stop_count":11,"shape_point_count":11,"shape":[[35.660625,139.413434],[35.658297,139.413444],[35.654162,139.415458],[35.649304,139.4185],[35.646547,139.418073],[35.64667,139.418861],[35.650279,139.420581],[35.651927,139.4214],[35.653741,139.423085],[35.655985,139.424712],[35.657942,139.424603]],"stops":[{"seq":1,"stop_id":"0706_05","name":"高幡不動駅","lat":35.660625,"lon":139.413434,"time":"18:05"},{"seq":2,"stop_id":"0702_01","name":"高幡十字路","lat":35.658297,"lon":139.413444,"time":"18:06"},{"seq":3,"stop_id":"0703_01","name":"高幡台団地","lat":35.654162,"lon":139.415458,"time":"18:08"},{"seq":4,"stop_id":"1476_01","name":"百草センター","lat":35.649304,"lon":139.4185,"time":"18:11"},{"seq":5,"stop_id":"1478_00","name":"百草団地","lat":35.646547,"lon":139.418073,"time":"18:12"},{"seq":6,"stop_id":"1479_02","name":"百草団地入口","lat":35.64667,"lon":139.418861,"time":"18:13"},{"seq":7,"stop_id":"1473_03","name":"百草園住宅","lat":35.650279,"lon":139.420581,"time":"18:14"},{"seq":8,"stop_id":"1477_02","name":"百草台公園","lat":35.651927,"lon":139.4214,"time":"18:15"},{"seq":9,"stop_id":"0991_02","name":"七生緑小学校","lat":35.653741,"lon":139.423085,"time":"18:15"},{"seq":10,"stop_id":"1370_02","name":"三沢台","lat":35.655985,"lon":139.424712,"time":"18:16"},{"seq":11,"stop_id":"1371_00","name":"三沢台下","lat":35.657942,"lon":139.424603,"time":"18:19"}],"trip_counts":{"weekday":0,"saturday":2,"holiday":2}},{"pattern_id":"27-1","direction_id":"0","headsign":"","shape_id":"","trip_count":2,"sample_trip_id":"10_01_0491_04_000271","stop_count":5,"shape_point_count":5,"shape":[[35.641872,139.283914],[35.63783,139.287538],[35.635235,139.28794],[35.63127,139.287273],[35.631056,139.290033]],"stops":[{"seq":1,"stop_id":"0697_03","name":"高尾駅南口","lat":35.641872,"lon":139.283914,"time":"07:56"},{"seq":2,"stop_id":"1098_01","name":"狭間町","lat":35.63783,"lon":139.287538,"time":"07:58"},{"seq":3,"stop_id":"0231_01","name":"上館","lat":35.635235,"lon":139.28794,"time":"07:59"},{"seq":4,"stop_id":"0253_01","name":"北館ヶ丘","lat":35.63127,"lon":139.287273,"time":"08:02"},{"seq":5,"stop_id":"0089_00","name":"医療センター","lat":35.631056,"lon":139.290033,"time":"08:07"}],"trip_counts":{"weekday":2,"saturday":0,"holiday":0}}],"pattern_count":4},{"route_id":"30","short_name":"日０４","full_short_name":"日０４","long_name":"","color":"#dd1f26","text_color":"#ffffff","patterns":[{"pattern_id":"30-1","direction_id":"0","headsign":"","shape_id":"","trip_count":81,"sample_trip_id":"01_01_0021_02_000301","stop_count":14,"shape_point_count":14,"shape":[[35.67899,139.393028],[35.677269,139.386609],[35.678324,139.38339],[35.679331,139.380767],[35.679719,139.378539],[35.678597,139.375084],[35.677415,139.373221],[35.675181,139.370684],[35.672973,139.373791],[35.670278,139.375134],[35.667043,139.37766],[35.663758,139.379273],[35.662264,139.379772],[35.660365,139.381134]],"stops":[{"seq":1,"stop_id":"1183_00","name":"日野駅","lat":35.67899,"lon":139.393028,"time":"18:15"},{"seq":2,"stop_id":"1197_01","name":"日野台一丁目","lat":35.677269,"lon":139.386609,"time":"18:17"},{"seq":3,"stop_id":"1188_01","name":"日野第三小学校","lat":35.678324,"lon":139.38339,"time":"18:18"},{"seq":4,"stop_id":"1199_01","name":"日野台二丁目","lat":35.679331,"lon":139.380767,"time":"18:19"},{"seq":5,"stop_id":"1385_01","name":"緑ヶ丘","lat":35.679719,"lon":139.378539,"time":"18:20"},{"seq":6,"stop_id":"1626_01","name":"八王子東特別支援学校","lat":35.678597,"lon":139.375084,"time":"18:21"},{"seq":7,"stop_id":"1813_01","name":"石川町東","lat":35.677415,"lon":139.373221,"time":"18:21"},{"seq":8,"stop_id":"1812_01","name":"石川町","lat":35.675181,"lon":139.370684,"time":"18:22"},{"seq":9,"stop_id":"1198_01","name":"日野台五丁目","lat":35.672973,"lon":139.373791,"time":"18:25"},{"seq":10,"stop_id":"1196_03","name":"日野台","lat":35.670278,"lon":139.375134,"time":"18:26"},{"seq":11,"stop_id":"0557_01","name":"市立病院入口","lat":35.667043,"lon":139.37766,"time":"18:27"},{"seq":12,"stop_id":"0683_00","name":"第二中学校","lat":35.663758,"lon":139.379273,"time":"18:28"},{"seq":13,"stop_id":"0353_01","name":"イオンモール多摩平の森","lat":35.662264,"lon":139.379772,"time":"18:29"},{"seq":14,"stop_id":"0915_00","name":"豊田駅北口","lat":35.660365,"lon":139.381134,"time":"18:31"}],"trip_counts":{"weekday":27,"saturday":27,"holiday":27}},{"pattern_id":"30-2","direction_id":"1","headsign":"","shape_id":"","trip_count":75,"sample_trip_id":"01_01_0021_03_000302","stop_count":14,"shape_point_count":14,"shape":[[35.660302,139.381201],[35.66321,139.379197],[35.664131,139.37891],[35.666762,139.377619],[35.670212,139.375146],[35.6725,139.373819],[35.675341,139.370561],[35.6775,139.373016],[35.678531,139.374725],[35.679882,139.378421],[35.679534,139.380599],[35.678402,139.383581],[35.677436,139.3866],[35.67899,139.393028]],"stops":[{"seq":1,"stop_id":"0915_04","name":"豊田駅北口","lat":35.660302,"lon":139.381201,"time":"18:48"},{"seq":2,"stop_id":"0353_02","name":"イオンモール多摩平の森","lat":35.66321,"lon":139.379197,"time":"18:49"},{"seq":3,"stop_id":"0683_02","name":"第二中学校","lat":35.664131,"lon":139.37891,"time":"18:50"},{"seq":4,"stop_id":"0557_02","name":"市立病院入口","lat":35.666762,"lon":139.377619,"time":"18:51"},{"seq":5,"stop_id":"1196_04","name":"日野台","lat":35.670212,"lon":139.375146,"time":"18:52"},{"seq":6,"stop_id":"1198_02","name":"日野台五丁目","lat":35.6725,"lon":139.373819,"time":"18:54"},{"seq":7,"stop_id":"1812_02","name":"石川町","lat":35.675341,"lon":139.370561,"time":"18:55"},{"seq":8,"stop_id":"1813_02","name":"石川町東","lat":35.6775,"lon":139.373016,"time":"18:56"},{"seq":9,"stop_id":"1626_02","name":"八王子東特別支援学校","lat":35.678531,"lon":139.374725,"time":"18:57"},{"seq":10,"stop_id":"1385_02","name":"緑ヶ丘","lat":35.679882,"lon":139.378421,"time":"18:57"},{"seq":11,"stop_id":"1199_02","name":"日野台二丁目","lat":35.679534,"lon":139.380599,"time":"18:58"},{"seq":12,"stop_id":"1188_02","name":"日野第三小学校","lat":35.678402,"lon":139.383581,"time":"18:59"},{"seq":13,"stop_id":"1197_02","name":"日野台一丁目","lat":35.677436,"lon":139.3866,"time":"19:00"},{"seq":14,"stop_id":"1183_00","name":"日野駅","lat":35.67899,"lon":139.393028,"time":"19:04"}],"trip_counts":{"weekday":25,"saturday":25,"holiday":25}}],"pattern_count":2},{"route_id":"31","short_name":"西６２","full_short_name":"西６２","long_name":"","color":"#dd1f26","text_color":"#ffffff","patterns":[{"pattern_id":"31-1","direction_id":"0","headsign":"","shape_id":"","trip_count":143,"sample_trip_id":"01_01_8011_02_000311","stop_count":10,"shape_point_count":10,"shape":[[35.655955,139.313312],[35.655228,139.31341],[35.654,139.311078],[35.651585,139.306669],[35.649308,139.302973],[35.646948,139.298747],[35.645052,139.295275],[35.643493,139.292454],[35.641917,139.289082],[35.641834,139.283642]],"stops":[{"seq":1,"stop_id":"1034_03","name":"西八王子駅南口","lat":35.655955,"lon":139.313312,"time":"16:38"},{"seq":2,"stop_id":"1033_01","name":"西八王子駅南入口","lat":35.655228,"lon":139.31341,"time":"16:38"},{"seq":3,"stop_id":"0458_01","name":"散田三丁目","lat":35.654,"lon":139.311078,"time":"16:39"},{"seq":4,"stop_id":"0459_01","name":"散田四丁目","lat":35.651585,"lon":139.306669,"time":"16:40"},{"seq":5,"stop_id":"0457_01","name":"散田五丁目","lat":35.649308,"lon":139.302973,"time":"16:42"},{"seq":6,"stop_id":"1051_01","name":"西郵便局入口","lat":35.646948,"lon":139.298747,"time":"16:43"},{"seq":7,"stop_id":"1565_01","name":"陵南中学校","lat":35.645052,"lon":139.295275,"time":"16:44"},{"seq":8,"stop_id":"1240_01","name":"福祉センター入口","lat":35.643493,"lon":139.292454,"time":"16:45"},{"seq":9,"stop_id":"1743_01","name":"イーアス高尾","lat":35.641917,"lon":139.289082,"time":"16:46"},{"seq":10,"stop_id":"0697_00","name":"高尾駅南口","lat":35.641834,"lon":139.283642,"time":"16:56"}],"trip_counts":{"weekday":47,"saturday":48,"holiday":48}},{"pattern_id":"31-2","direction_id":"1","headsign":"","shape_id":"","trip_count":143,"sample_trip_id":"01_01_8011_03_000312","stop_count":9,"shape_point_count":9,"shape":[[35.641834,139.283642],[35.642346,139.290016],[35.643678,139.29249],[35.645248,139.295334],[35.647185,139.298852],[35.649371,139.302791],[35.651866,139.306872],[35.65417,139.311165],[35.656164,139.313074]],"stops":[{"seq":1,"stop_id":"0697_00","name":"高尾駅南口","lat":35.641834,"lon":139.283642,"time":"17:04"},{"seq":2,"stop_id":"1743_02","name":"イーアス高尾","lat":35.642346,"lon":139.290016,"time":"17:06"},{"seq":3,"stop_id":"1240_02","name":"福祉センター入口","lat":35.643678,"lon":139.29249,"time":"17:07"},{"seq":4,"stop_id":"1565_02","name":"陵南中学校","lat":35.645248,"lon":139.295334,"time":"17:08"},{"seq":5,"stop_id":"1051_02","name":"西郵便局入口","lat":35.647185,"lon":139.298852,"time":"17:08"},{"seq":6,"stop_id":"0457_02","name":"散田五丁目","lat":35.649371,"lon":139.302791,"time":"17:09"},{"seq":7,"stop_id":"0459_02","name":"散田四丁目","lat":35.651866,"lon":139.306872,"time":"17:10"},{"seq":8,"stop_id":"0458_02","name":"散田三丁目","lat":35.65417,"lon":139.311165,"time":"17:11"},{"seq":9,"stop_id":"1034_00","name":"西八王子駅南口","lat":35.656164,"lon":139.313074,"time":"17:21"}],"trip_counts":{"weekday":47,"saturday":48,"holiday":48}}],"pattern_count":2},{"route_id":"33","short_name":"八９９","full_short_name":"八９９","long_name":"","color":"#dd1f26","text_color":"#ffffff","patterns":[{"pattern_id":"33-2","direction_id":"1","headsign":"","shape_id":"","trip_count":23,"sample_trip_id":"01_01_0152_07_000332","stop_count":7,"shape_point_count":7,"shape":[[35.656164,139.313074],[35.655648,139.313947],[35.656674,139.319277],[35.656547,139.321508],[35.655569,139.326659],[35.655099,139.329957],[35.654097,139.338611]],"stops":[{"seq":1,"stop_id":"1034_00","name":"西八王子駅南口","lat":35.656164,"lon":139.313074,"time":"13:22"},{"seq":2,"stop_id":"1033_02","name":"西八王子駅南入口","lat":35.655648,"lon":139.313947,"time":"13:22"},{"seq":3,"stop_id":"0926_02","name":"都立八王子盲学校","lat":35.656674,"lon":139.319277,"time":"13:23"},{"seq":4,"stop_id":"0585_02","name":"信松院","lat":35.656547,"lon":139.321508,"time":"13:24"},{"seq":5,"stop_id":"1401_02","name":"南大通り","lat":35.655569,"lon":139.326659,"time":"13:25"},{"seq":6,"stop_id":"1341_02","name":"本立寺","lat":35.655099,"lon":139.329957,"time":"13:27"},{"seq":7,"stop_id":"1108_00","name":"八王子駅南口","lat":35.654097,"lon":139.338611,"time":"13:37"}],"trip_counts":{"weekday":7,"saturday":8,"holiday":8}},{"pattern_id":"33-1","direction_id":"0","headsign":"","shape_id":"","trip_count":19,"sample_trip_id":"01_01_0152_02_000331","stop_count":6,"shape_point_count":6,"shape":[[35.654097,139.338611],[35.654797,139.33126],[35.655494,139.326349],[35.656346,139.322223],[35.656552,139.319517],[35.656164,139.313074]],"stops":[{"seq":1,"stop_id":"1108_00","name":"八王子駅南口","lat":35.654097,"lon":139.338611,"time":"10:51"},{"seq":2,"stop_id":"1341_01","name":"本立寺","lat":35.654797,"lon":139.33126,"time":"10:53"},{"seq":3,"stop_id":"1401_01","name":"南大通り","lat":35.655494,"lon":139.326349,"time":"10:54"},{"seq":4,"stop_id":"0585_01","name":"信松院","lat":35.656346,"lon":139.322223,"time":"10:55"},{"seq":5,"stop_id":"0926_01","name":"都立八王子盲学校","lat":35.656552,"lon":139.319517,"time":"10:56"},{"seq":6,"stop_id":"1034_00","name":"西八王子駅南口","lat":35.656164,"lon":139.313074,"time":"11:06"}],"trip_counts":{"weekday":7,"saturday":6,"holiday":6}}],"pattern_count":2},{"route_id":"35","short_name":"車庫","full_short_name":"車庫","long_name":"","color":"#dd1f26","text_color":"#ffffff","patterns":[{"pattern_id":"35-2","direction_id":"1","headsign":"","shape_id":"","trip_count":106,"sample_trip_id":"01_01_0041_06_000352","stop_count":6,"shape_point_count":6,"shape":[[35.656427,139.33965],[35.65733,139.342385],[35.65587,139.348808],[35.654719,139.351714],[35.651743,139.355977],[35.648031,139.360174]],"stops":[{"seq":1,"stop_id":"1107_04","name":"八王子駅北口","lat":35.656427,"lon":139.33965,"time":"18:30"},{"seq":2,"stop_id":"0318_04","name":"京王八王子駅","lat":35.65733,"lon":139.342385,"time":"18:31"},{"seq":3,"stop_id":"1443_02","name":"明神町二丁目","lat":35.65587,"lon":139.348808,"time":"18:34"},{"seq":4,"stop_id":"0037_02","name":"あったかホール前","lat":35.654719,"lon":139.351714,"time":"18:36"},{"seq":5,"stop_id":"0065_02","name":"市場前","lat":35.651743,"lon":139.355977,"time":"18:38"},{"seq":6,"stop_id":"1110_00","name":"八王子車庫","lat":35.648031,"lon":139.360174,"time":"18:42"}],"trip_counts":{"weekday":38,"saturday":34,"holiday":34}},{"pattern_id":"35-1","direction_id":"0","headsign":"","shape_id":"","trip_count":101,"sample_trip_id":"01_01_0041_01_000351","stop_count":6,"shape_point_count":6,"shape":[[35.648305,139.36019],[35.651326,139.356911],[35.655052,139.351002],[35.655601,139.348105],[35.657005,139.342804],[35.656529,139.339123]],"stops":[{"seq":1,"stop_id":"1110_01","name":"八王子車庫","lat":35.648305,"lon":139.36019,"time":"16:07"},{"seq":2,"stop_id":"0065_01","name":"市場前","lat":35.651326,"lon":139.356911,"time":"16:08"},{"seq":3,"stop_id":"0037_01","name":"あったかホール前","lat":35.655052,"lon":139.351002,"time":"16:10"},{"seq":4,"stop_id":"1443_01","name":"明神町二丁目","lat":35.655601,"lon":139.348105,"time":"16:11"},{"seq":5,"stop_id":"0318_06","name":"京王八王子駅","lat":35.657005,"lon":139.342804,"time":"16:14"},{"seq":6,"stop_id":"1107_00","name":"八王子駅北口","lat":35.656529,"lon":139.339123,"time":"16:19"}],"trip_counts":{"weekday":41,"saturday":30,"holiday":30}}],"pattern_count":2},{"route_id":"236","short_name":"宿４１","full_short_name":"宿４１","long_name":"","color":"#dd1f26","text_color":"#ffffff","patterns":[{"pattern_id":"236-2","direction_id":"1","headsign":"","shape_id":"","trip_count":51,"sample_trip_id":"03_01_0031_02_017692","stop_count":16,"shape_point_count":16,"shape":[[35.688524,139.66897],[35.685464,139.669277],[35.683231,139.669505],[35.681372,139.669655],[35.678781,139.670215],[35.677954,139.671343],[35.678915,139.673966],[35.680227,139.677661],[35.681417,139.680873],[35.682394,139.682645],[35.68339,139.684396],[35.685194,139.687553],[35.686751,139.689182],[35.689141,139.693852],[35.689998,139.694883],[35.690527,139.698804]],"stops":[{"seq":1,"stop_id":"1241_02","name":"富士高校","lat":35.688524,"lon":139.66897,"time":"06:42"},{"seq":2,"stop_id":"1409_02","name":"南台交差点","lat":35.685464,"lon":139.669277,"time":"06:42"},{"seq":3,"stop_id":"1410_02","name":"南台三丁目","lat":35.683231,"lon":139.669505,"time":"06:43"},{"seq":4,"stop_id":"1012_02","name":"新山通り","lat":35.681372,"lon":139.669655,"time":"06:44"},{"seq":5,"stop_id":"0446_02","name":"笹塚こども図書館","lat":35.678781,"lon":139.670215,"time":"06:45"},{"seq":6,"stop_id":"0448_02","name":"笹塚中学","lat":35.677954,"lon":139.671343,"time":"06:47"},{"seq":7,"stop_id":"0996_02","name":"七号通り","lat":35.678915,"lon":139.673966,"time":"06:48"},{"seq":8,"stop_id":"1579_02","name":"六号通り","lat":35.680227,"lon":139.677661,"time":"06:49"},{"seq":9,"stop_id":"1333_02","name":"本町一丁目","lat":35.681417,"lon":139.680873,"time":"06:50"},{"seq":10,"stop_id":"1276_02","name":"不動通り入口","lat":35.682394,"lon":139.682645,"time":"06:50"},{"seq":11,"stop_id":"1104_02","name":"幡ヶ谷不動尊","lat":35.68339,"lon":139.684396,"time":"06:51"},{"seq":12,"stop_id":"1027_02","name":"西新宿小学校","lat":35.685194,"lon":139.687553,"time":"06:52"},{"seq":13,"stop_id":"0528_02","name":"十二社池の上","lat":35.686751,"lon":139.689182,"time":"06:53"},{"seq":14,"stop_id":"0575_02","name":"新宿ＮＳビル","lat":35.689141,"lon":139.693852,"time":"06:55"},{"seq":15,"stop_id":"0319_02","name":"京王プラザホテル","lat":35.689998,"lon":139.694883,"time":"06:56"},{"seq":16,"stop_id":"0572_00","name":"新宿駅西口","lat":35.690527,"lon":139.698804,"time":"07:01"}],"trip_counts":{"weekday":20,"saturday":15,"holiday":16}},{"pattern_id":"236-1","direction_id":"0","headsign":"","shape_id":"","trip_count":30,"sample_trip_id":"03_01_0072_06_002361","stop_count":17,"shape_point_count":17,"shape":[[35.690397,139.69882],[35.690516,139.695106],[35.68878,139.69324],[35.687414,139.689309],[35.68529,139.687975],[35.683086,139.684114],[35.681813,139.681904],[35.680979,139.680064],[35.679664,139.676474],[35.678956,139.674498],[35.67821,139.670204],[35.679614,139.669854],[35.681038,139.669514],[35.68369,139.669287],[35.68731,139.668914],[35.689141,139.668812],[35.690824,139.668808]],"stops":[{"seq":1,"stop_id":"0572_20","name":"新宿駅西口","lat":35.690397,"lon":139.69882,"time":"22:26"},{"seq":2,"stop_id":"0319_01","name":"京王プラザホテル","lat":35.690516,"lon":139.695106,"time":"22:27"},{"seq":3,"stop_id":"0575_01","name":"新宿ＮＳビル","lat":35.68878,"lon":139.69324,"time":"22:28"},{"seq":4,"stop_id":"0528_01","name":"十二社池の上","lat":35.687414,"lon":139.689309,"time":"22:30"},{"seq":5,"stop_id":"1027_01","name":"西新宿小学校","lat":35.68529,"lon":139.687975,"time":"22:31"},{"seq":6,"stop_id":"1104_01","name":"幡ヶ谷不動尊","lat":35.683086,"lon":139.684114,"time":"22:34"},{"seq":7,"stop_id":"1276_01","name":"不動通り入口","lat":35.681813,"lon":139.681904,"time":"22:34"},{"seq":8,"stop_id":"1333_01","name":"本町一丁目","lat":35.680979,"lon":139.680064,"time":"22:35"},{"seq":9,"stop_id":"1579_01","name":"六号通り","lat":35.679664,"lon":139.676474,"time":"22:36"},{"seq":10,"stop_id":"0996_01","name":"七号通り","lat":35.678956,"lon":139.674498,"time":"22:36"},{"seq":11,"stop_id":"0448_01","name":"笹塚中学","lat":35.67821,"lon":139.670204,"time":"22:38"},{"seq":12,"stop_id":"0446_01","name":"笹塚こども図書館","lat":35.679614,"lon":139.669854,"time":"22:39"},{"seq":13,"stop_id":"1012_01","name":"新山通り","lat":35.681038,"lon":139.669514,"time":"22:39"},{"seq":14,"stop_id":"1410_01","name":"南台三丁目","lat":35.68369,"lon":139.669287,"time":"22:40"},{"seq":15,"stop_id":"1409_01","name":"南台交差点","lat":35.68731,"lon":139.668914,"time":"22:41"},{"seq":16,"stop_id":"1241_01","name":"富士高校","lat":35.689141,"lon":139.668812,"time":"22:42"},{"seq":17,"stop_id":"0955_00","name":"中野車庫","lat":35.690824,"lon":139.668808,"time":"22:46"}],"trip_counts":{"weekday":8,"saturday":11,"holiday":11}}],"pattern_count":2},{"route_id":"237","short_name":"宿４５","full_short_name":"宿４５","long_name":"","color":"#dd1f26","text_color":"#ffffff","patterns":[{"pattern_id":"237-1","direction_id":"0","headsign":"","shape_id":"","trip_count":341,"sample_trip_id":"03_01_0072_02_002371","stop_count":21,"shape_point_count":21,"shape":[[35.690397,139.69882],[35.690516,139.695106],[35.68878,139.69324],[35.687414,139.689309],[35.68529,139.687975],[35.683086,139.684114],[35.681813,139.681904],[35.680979,139.680064],[35.679664,139.676474],[35.678956,139.674498],[35.67821,139.670204],[35.679614,139.669854],[35.681038,139.669514],[35.68369,139.669287],[35.68731,139.668914],[35.689141,139.668812],[35.691203,139.669023],[35.694565,139.668026],[35.698004,139.667424],[35.701341,139.666827],[35.705311,139.665818]],"stops":[{"seq":1,"stop_id":"0572_20","name":"新宿駅西口","lat":35.690397,"lon":139.69882,"time":"19:19"},{"seq":2,"stop_id":"0319_01","name":"京王プラザホテル","lat":35.690516,"lon":139.695106,"time":"19:20"},{"seq":3,"stop_id":"0575_01","name":"新宿ＮＳビル","lat":35.68878,"lon":139.69324,"time":"19:21"},{"seq":4,"stop_id":"0528_01","name":"十二社池の上","lat":35.687414,"lon":139.689309,"time":"19:23"},{"seq":5,"stop_id":"1027_01","name":"西新宿小学校","lat":35.68529,"lon":139.687975,"time":"19:25"},{"seq":6,"stop_id":"1104_01","name":"幡ヶ谷不動尊","lat":35.683086,"lon":139.684114,"time":"19:29"},{"seq":7,"stop_id":"1276_01","name":"不動通り入口","lat":35.681813,"lon":139.681904,"time":"19:29"},{"seq":8,"stop_id":"1333_01","name":"本町一丁目","lat":35.680979,"lon":139.680064,"time":"19:30"},{"seq":9,"stop_id":"1579_01","name":"六号通り","lat":35.679664,"lon":139.676474,"time":"19:31"},{"seq":10,"stop_id":"0996_01","name":"七号通り","lat":35.678956,"lon":139.674498,"time":"19:32"},{"seq":11,"stop_id":"0448_01","name":"笹塚中学","lat":35.67821,"lon":139.670204,"time":"19:34"},{"seq":12,"stop_id":"0446_01","name":"笹塚こども図書館","lat":35.679614,"lon":139.669854,"time":"19:36"},{"seq":13,"stop_id":"1012_01","name":"新山通り","lat":35.681038,"lon":139.669514,"time":"19:37"},{"seq":14,"stop_id":"1410_01","name":"南台三丁目","lat":35.68369,"lon":139.669287,"time":"19:38"},{"seq":15,"stop_id":"1409_01","name":"南台交差点","lat":35.68731,"lon":139.668914,"time":"19:40"},{"seq":16,"stop_id":"1241_01","name":"富士高校","lat":35.689141,"lon":139.668812,"time":"19:41"},{"seq":17,"stop_id":"0955_01","name":"中野車庫","lat":35.691203,"lon":139.669023,"time":"19:43"},{"seq":18,"stop_id":"0530_01","name":"十貫坂上","lat":35.694565,"lon":139.668026,"time":"19:44"},{"seq":19,"stop_id":"0616_01","name":"杉山公園","lat":35.698004,"lon":139.667424,"time":"19:46"},{"seq":20,"stop_id":"0774_01","name":"中央五丁目","lat":35.701341,"lon":139.666827,"time":"19:47"},{"seq":21,"stop_id":"0952_00","name":"中野駅","lat":35.705311,"lon":139.665818,"time":"19:54"}],"trip_counts":{"weekday":128,"saturday":107,"holiday":106}},{"pattern_id":"237-2","direction_id":"1","headsign":"","shape_id":"","trip_count":319,"sample_trip_id":"03_01_0072_03_002372","stop_count":21,"shape_point_count":21,"shape":[[35.705196,139.666123],[35.701474,139.666927],[35.698149,139.667597],[35.694703,139.668143],[35.691742,139.669098],[35.688524,139.66897],[35.685464,139.669277],[35.683231,139.669505],[35.681372,139.669655],[35.678781,139.670215],[35.677954,139.671343],[35.678915,139.673966],[35.680227,139.677661],[35.681417,139.680873],[35.682394,139.682645],[35.68339,139.684396],[35.685194,139.687553],[35.686751,139.689182],[35.689141,139.693852],[35.689998,139.694883],[35.690527,139.698804]],"stops":[{"seq":1,"stop_id":"0952_01","name":"中野駅","lat":35.705196,"lon":139.666123,"time":"20:08"},{"seq":2,"stop_id":"0774_02","name":"中央五丁目","lat":35.701474,"lon":139.666927,"time":"20:09"},{"seq":3,"stop_id":"0616_02","name":"杉山公園","lat":35.698149,"lon":139.667597,"time":"20:10"},{"seq":4,"stop_id":"0530_02","name":"十貫坂上","lat":35.694703,"lon":139.668143,"time":"20:12"},{"seq":5,"stop_id":"0955_02","name":"中野車庫","lat":35.691742,"lon":139.669098,"time":"20:15"},{"seq":6,"stop_id":"1241_02","name":"富士高校","lat":35.688524,"lon":139.66897,"time":"20:17"},{"seq":7,"stop_id":"1409_02","name":"南台交差点","lat":35.685464,"lon":139.669277,"time":"20:18"},{"seq":8,"stop_id":"1410_02","name":"南台三丁目","lat":35.683231,"lon":139.669505,"time":"20:19"},{"seq":9,"stop_id":"1012_02","name":"新山通り","lat":35.681372,"lon":139.669655,"time":"20:20"},{"seq":10,"stop_id":"0446_02","name":"笹塚こども図書館","lat":35.678781,"lon":139.670215,"time":"20:21"},{"seq":11,"stop_id":"0448_02","name":"笹塚中学","lat":35.677954,"lon":139.671343,"time":"20:23"},{"seq":12,"stop_id":"0996_02","name":"七号通り","lat":35.678915,"lon":139.673966,"time":"20:23"},{"seq":13,"stop_id":"1579_02","name":"六号通り","lat":35.680227,"lon":139.677661,"time":"20:24"},{"seq":14,"stop_id":"1333_02","name":"本町一丁目","lat":35.681417,"lon":139.680873,"time":"20:25"},{"seq":15,"stop_id":"1276_02","name":"不動通り入口","lat":35.682394,"lon":139.682645,"time":"20:26"},{"seq":16,"stop_id":"1104_02","name":"幡ヶ谷不動尊","lat":35.68339,"lon":139.684396,"time":"20:27"},{"seq":17,"stop_id":"1027_02","name":"西新宿小学校","lat":35.685194,"lon":139.687553,"time":"20:28"},{"seq":18,"stop_id":"0528_02","name":"十二社池の上","lat":35.686751,"lon":139.689182,"time":"20:30"},{"seq":19,"stop_id":"0575_02","name":"新宿ＮＳビル","lat":35.689141,"lon":139.693852,"time":"20:31"},{"seq":20,"stop_id":"0319_02","name":"京王プラザホテル","lat":35.689998,"lon":139.694883,"time":"20:33"},{"seq":21,"stop_id":"0572_00","name":"新宿駅西口","lat":35.690527,"lon":139.698804,"time":"20:39"}],"trip_counts":{"weekday":115,"saturday":103,"holiday":101}}],"pattern_count":2},{"route_id":"238","short_name":"渋６３","full_short_name":"渋６３","long_name":"","color":"#dd1f26","text_color":"#ffffff","patterns":[{"pattern_id":"238-1","direction_id":"0","headsign":"","shape_id":"","trip_count":251,"sample_trip_id":"03_01_0042_02_002381","stop_count":26,"shape_point_count":26,"shape":[[35.658475,139.700372],[35.661746,139.699643],[35.664438,139.697236],[35.664981,139.694392],[35.66756,139.69137],[35.670077,139.687631],[35.672432,139.687491],[35.674425,139.687631],[35.676415,139.68765],[35.679559,139.688498],[35.680712,139.688595],[35.680734,139.686018],[35.678274,139.680829],[35.676934,139.67657],[35.676038,139.673605],[35.67821,139.670204],[35.679614,139.669854],[35.681038,139.669514],[35.68369,139.669287],[35.68731,139.668914],[35.689141,139.668812],[35.691203,139.669023],[35.694565,139.668026],[35.698004,139.667424],[35.701341,139.666827],[35.705311,139.665818]],"stops":[{"seq":1,"stop_id":"0492_13","name":"渋谷駅","lat":35.658475,"lon":139.700372,"time":"10:42"},{"seq":2,"stop_id":"0594_01","name":"神南一丁目","lat":35.661746,"lon":139.699643,"time":"10:44"},{"seq":3,"stop_id":"0494_01","name":"渋谷区役所","lat":35.664438,"lon":139.697236,"time":"10:46"},{"seq":4,"stop_id":"1295_01","name":"放送センター西口","lat":35.664981,"lon":139.694392,"time":"10:48"},{"seq":5,"stop_id":"0899_01","name":"富ヶ谷","lat":35.66756,"lon":139.69137,"time":"10:50"},{"seq":6,"stop_id":"1558_01","name":"代々木八幡駅入口","lat":35.670077,"lon":139.687631,"time":"10:54"},{"seq":7,"stop_id":"1113_01","name":"八幡下","lat":35.672432,"lon":139.687491,"time":"10:55"},{"seq":8,"stop_id":"1121_01","name":"初台坂下","lat":35.674425,"lon":139.687631,"time":"10:56"},{"seq":9,"stop_id":"1430_01","name":"南初台","lat":35.676415,"lon":139.68765,"time":"10:57"},{"seq":10,"stop_id":"1120_01","name":"初台坂上","lat":35.679559,"lon":139.688498,"time":"10:58"},{"seq":11,"stop_id":"0841_01","name":"東京オペラシティ南","lat":35.680712,"lon":139.688595,"time":"10:59"},{"seq":12,"stop_id":"0571_01","name":"新国立劇場","lat":35.680734,"lon":139.686018,"time":"11:03"},{"seq":13,"stop_id":"1106_01","name":"幡代","lat":35.678274,"lon":139.680829,"time":"11:04"},{"seq":14,"stop_id":"1102_01","name":"幡ヶ谷駅","lat":35.676934,"lon":139.67657,"time":"11:05"},{"seq":15,"stop_id":"1103_01","name":"幡ヶ谷原町","lat":35.676038,"lon":139.673605,"time":"11:06"},{"seq":16,"stop_id":"0448_01","name":"笹塚中学","lat":35.67821,"lon":139.670204,"time":"11:08"},{"seq":17,"stop_id":"0446_01","name":"笹塚こども図書館","lat":35.679614,"lon":139.669854,"time":"11:10"},{"seq":18,"stop_id":"1012_01","name":"新山通り","lat":35.681038,"lon":139.669514,"time":"11:11"},{"seq":19,"stop_id":"1410_01","name":"南台三丁目","lat":35.68369,"lon":139.669287,"time":"11:12"},{"seq":20,"stop_id":"1409_01","name":"南台交差点","lat":35.68731,"lon":139.668914,"time":"11:14"},{"seq":21,"stop_id":"1241_01","name":"富士高校","lat":35.689141,"lon":139.668812,"time":"11:15"},{"seq":22,"stop_id":"0955_01","name":"中野車庫","lat":35.691203,"lon":139.669023,"time":"11:17"},{"seq":23,"stop_id":"0530_01","name":"十貫坂上","lat":35.694565,"lon":139.668026,"time":"11:18"},{"seq":24,"stop_id":"0616_01","name":"杉山公園","lat":35.698004,"lon":139.667424,"time":"11:20"},{"seq":25,"stop_id":"0774_01","name":"中央五丁目","lat":35.701341,"lon":139.666827,"time":"11:21"},{"seq":26,"stop_id":"0952_00","name":"中野駅","lat":35.705311,"lon":139.665818,"time":"11:28"}],"trip_counts":{"weekday":94,"saturday":80,"holiday":77}},{"pattern_id":"238-2","direction_id":"1","headsign":"","shape_id":"","trip_count":250,"sample_trip_id":"03_01_0042_03_002382","stop_count":26,"shape_point_count":26,"shape":[[35.705196,139.666123],[35.701474,139.666927],[35.698149,139.667597],[35.694703,139.668143],[35.691742,139.669098],[35.688524,139.66897],[35.685464,139.669277],[35.683231,139.669505],[35.681372,139.669655],[35.678781,139.670215],[35.676827,139.67069],[35.675834,139.671556],[35.67764,139.677641],[35.67901,139.681516],[35.681072,139.6858],[35.681829,139.688847],[35.679018,139.688777],[35.676174,139.688031],[35.674258,139.6879],[35.672247,139.68795],[35.669175,139.688137],[35.667799,139.689671],[35.66467,139.694874],[35.664035,139.699174],[35.661576,139.700173],[35.658749,139.700124]],"stops":[{"seq":1,"stop_id":"0952_01","name":"中野駅","lat":35.705196,"lon":139.666123,"time":"11:48"},{"seq":2,"stop_id":"0774_02","name":"中央五丁目","lat":35.701474,"lon":139.666927,"time":"11:49"},{"seq":3,"stop_id":"0616_02","name":"杉山公園","lat":35.698149,"lon":139.667597,"time":"11:51"},{"seq":4,"stop_id":"0530_02","name":"十貫坂上","lat":35.694703,"lon":139.668143,"time":"11:53"},{"seq":5,"stop_id":"0955_02","name":"中野車庫","lat":35.691742,"lon":139.669098,"time":"11:57"},{"seq":6,"stop_id":"1241_02","name":"富士高校","lat":35.688524,"lon":139.66897,"time":"11:59"},{"seq":7,"stop_id":"1409_02","name":"南台交差点","lat":35.685464,"lon":139.669277,"time":"12:00"},{"seq":8,"stop_id":"1410_02","name":"南台三丁目","lat":35.683231,"lon":139.669505,"time":"12:02"},{"seq":9,"stop_id":"1012_02","name":"新山通り","lat":35.681372,"lon":139.669655,"time":"12:03"},{"seq":10,"stop_id":"0446_02","name":"笹塚こども図書館","lat":35.678781,"lon":139.670215,"time":"12:04"},{"seq":11,"stop_id":"0448_04","name":"笹塚中学","lat":35.676827,"lon":139.67069,"time":"12:05"},{"seq":12,"stop_id":"1103_02","name":"幡ヶ谷原町","lat":35.675834,"lon":139.671556,"time":"12:08"},{"seq":13,"stop_id":"1102_02","name":"幡ヶ谷駅","lat":35.67764,"lon":139.677641,"time":"12:10"},{"seq":14,"stop_id":"1106_02","name":"幡代","lat":35.67901,"lon":139.681516,"time":"12:11"},{"seq":15,"stop_id":"0571_02","name":"新国立劇場","lat":35.681072,"lon":139.6858,"time":"12:12"},{"seq":16,"stop_id":"0841_02","name":"東京オペラシティ南","lat":35.681829,"lon":139.688847,"time":"12:17"},{"seq":17,"stop_id":"1120_02","name":"初台坂上","lat":35.679018,"lon":139.688777,"time":"12:17"},{"seq":18,"stop_id":"1430_02","name":"南初台","lat":35.676174,"lon":139.688031,"time":"12:18"},{"seq":19,"stop_id":"1121_02","name":"初台坂下","lat":35.674258,"lon":139.6879,"time":"12:19"},{"seq":20,"stop_id":"1113_02","name":"八幡下","lat":35.672247,"lon":139.68795,"time":"12:20"},{"seq":21,"stop_id":"1558_02","name":"代々木八幡駅入口","lat":35.669175,"lon":139.688137,"time":"12:22"},{"seq":22,"stop_id":"0899_02","name":"富ヶ谷","lat":35.667799,"lon":139.689671,"time":"12:23"},{"seq":23,"stop_id":"1295_02","name":"放送センター西口","lat":35.66467,"lon":139.694874,"time":"12:25"},{"seq":24,"stop_id":"0494_02","name":"渋谷区役所","lat":35.664035,"lon":139.699174,"time":"12:28"},{"seq":25,"stop_id":"0594_02","name":"神南一丁目","lat":35.661576,"lon":139.700173,"time":"12:30"},{"seq":26,"stop_id":"0492_00","name":"渋谷駅","lat":35.658749,"lon":139.700124,"time":"12:40"}],"trip_counts":{"weekday":93,"saturday":80,"holiday":77}},{"pattern_id":"238-5","direction_id":"1","headsign":"","shape_id":"","trip_count":244,"sample_trip_id":"03_01_0051_01_010252","stop_count":5,"shape_point_count":5,"shape":[[35.691203,139.669023],[35.694565,139.668026],[35.698004,139.667424],[35.701341,139.666827],[35.705311,139.665818]],"stops":[{"seq":1,"stop_id":"0955_01","name":"中野車庫","lat":35.691203,"lon":139.669023,"time":"15:41"},{"seq":2,"stop_id":"0530_01","name":"十貫坂上","lat":35.694565,"lon":139.668026,"time":"15:42"},{"seq":3,"stop_id":"0616_01","name":"杉山公園","lat":35.698004,"lon":139.667424,"time":"15:44"},{"seq":4,"stop_id":"0774_01","name":"中央五丁目","lat":35.701341,"lon":139.666827,"time":"15:46"},{"seq":5,"stop_id":"0952_00","name":"中野駅","lat":35.705311,"lon":139.665818,"time":"15:51"}],"trip_counts":{"weekday":83,"saturday":80,"holiday":81}},{"pattern_id":"238-4","direction_id":"0","headsign":"","shape_id":"","trip_count":10,"sample_trip_id":"03_01_0311_10_010251","stop_count":5,"shape_point_count":5,"shape":[[35.705196,139.666123],[35.701474,139.666927],[35.698149,139.667597],[35.694703,139.668143],[35.690824,139.668808]],"stops":[{"seq":1,"stop_id":"0952_01","name":"中野駅","lat":35.705196,"lon":139.666123,"time":"10:46"},{"seq":2,"stop_id":"0774_02","name":"中央五丁目","lat":35.701474,"lon":139.666927,"time":"10:48"},{"seq":3,"stop_id":"0616_02","name":"杉山公園","lat":35.698149,"lon":139.667597,"time":"10:50"},{"seq":4,"stop_id":"0530_02","name":"十貫坂上","lat":35.694703,"lon":139.668143,"time":"10:51"},{"seq":5,"stop_id":"0955_00","name":"中野車庫","lat":35.690824,"lon":139.668808,"time":"10:56"}],"trip_counts":{"weekday":4,"saturday":3,"holiday":3}},{"pattern_id":"238-6","direction_id":"0","headsign":"","shape_id":"","trip_count":3,"sample_trip_id":"03_01_0241_02_017671","stop_count":21,"shape_point_count":21,"shape":[[35.688524,139.66897],[35.685464,139.669277],[35.683231,139.669505],[35.681372,139.669655],[35.678781,139.670215],[35.676827,139.67069],[35.675834,139.671556],[35.67764,139.677641],[35.67901,139.681516],[35.681072,139.6858],[35.681829,139.688847],[35.679018,139.688777],[35.676174,139.688031],[35.674258,139.6879],[35.672247,139.68795],[35.669175,139.688137],[35.667799,139.689671],[35.66467,139.694874],[35.664035,139.699174],[35.661576,139.700173],[35.658749,139.700124]],"stops":[{"seq":1,"stop_id":"1241_02","name":"富士高校","lat":35.688524,"lon":139.66897,"time":"05:59"},{"seq":2,"stop_id":"1409_02","name":"南台交差点","lat":35.685464,"lon":139.669277,"time":"06:00"},{"seq":3,"stop_id":"1410_02","name":"南台三丁目","lat":35.683231,"lon":139.669505,"time":"06:01"},{"seq":4,"stop_id":"1012_02","name":"新山通り","lat":35.681372,"lon":139.669655,"time":"06:02"},{"seq":5,"stop_id":"0446_02","name":"笹塚こども図書館","lat":35.678781,"lon":139.670215,"time":"06:03"},{"seq":6,"stop_id":"0448_04","name":"笹塚中学","lat":35.676827,"lon":139.67069,"time":"06:04"},{"seq":7,"stop_id":"1103_02","name":"幡ヶ谷原町","lat":35.675834,"lon":139.671556,"time":"06:07"},{"seq":8,"stop_id":"1102_02","name":"幡ヶ谷駅","lat":35.67764,"lon":139.677641,"time":"06:08"},{"seq":9,"stop_id":"1106_02","name":"幡代","lat":35.67901,"lon":139.681516,"time":"06:10"},{"seq":10,"stop_id":"0571_02","name":"新国立劇場","lat":35.681072,"lon":139.6858,"time":"06:11"},{"seq":11,"stop_id":"0841_02","name":"東京オペラシティ南","lat":35.681829,"lon":139.688847,"time":"06:14"},{"seq":12,"stop_id":"1120_02","name":"初台坂上","lat":35.679018,"lon":139.688777,"time":"06:14"},{"seq":13,"stop_id":"1430_02","name":"南初台","lat":35.676174,"lon":139.688031,"time":"06:15"},{"seq":14,"stop_id":"1121_02","name":"初台坂下","lat":35.674258,"lon":139.6879,"time":"06:16"},{"seq":15,"stop_id":"1113_02","name":"八幡下","lat":35.672247,"lon":139.68795,"time":"06:17"},{"seq":16,"stop_id":"1558_02","name":"代々木八幡駅入口","lat":35.669175,"lon":139.688137,"time":"06:18"},{"seq":17,"stop_id":"0899_02","name":"富ヶ谷","lat":35.667799,"lon":139.689671,"time":"06:20"},{"seq":18,"stop_id":"1295_02","name":"放送センター西口","lat":35.66467,"lon":139.694874,"time":"06:22"},{"seq":19,"stop_id":"0494_02","name":"渋谷区役所","lat":35.664035,"lon":139.699174,"time":"06:24"},{"seq":20,"stop_id":"0594_02","name":"神南一丁目","lat":35.661576,"lon":139.700173,"time":"06:25"},{"seq":21,"stop_id":"0492_00","name":"渋谷駅","lat":35.658749,"lon":139.700124,"time":"06:31"}],"trip_counts":{"weekday":1,"saturday":1,"holiday":1}},{"pattern_id":"238-3","direction_id":"1","headsign":"","shape_id":"","trip_count":2,"sample_trip_id":"03_02_1592_06_010242","stop_count":22,"shape_point_count":22,"shape":[[35.658475,139.700372],[35.661746,139.699643],[35.664438,139.697236],[35.664981,139.694392],[35.66756,139.69137],[35.670077,139.687631],[35.672432,139.687491],[35.674425,139.687631],[35.676415,139.68765],[35.679559,139.688498],[35.680712,139.688595],[35.680734,139.686018],[35.678274,139.680829],[35.676934,139.67657],[35.676038,139.673605],[35.67821,139.670204],[35.679614,139.669854],[35.681038,139.669514],[35.68369,139.669287],[35.68731,139.668914],[35.689141,139.668812],[35.690824,139.668808]],"stops":[{"seq":1,"stop_id":"0492_13","name":"渋谷駅","lat":35.658475,"lon":139.700372,"time":"23:08"},{"seq":2,"stop_id":"0594_01","name":"神南一丁目","lat":35.661746,"lon":139.699643,"time":"23:10"},{"seq":3,"stop_id":"0494_01","name":"渋谷区役所","lat":35.664438,"lon":139.697236,"time":"23:12"},{"seq":4,"stop_id":"1295_01","name":"放送センター西口","lat":35.664981,"lon":139.694392,"time":"23:14"},{"seq":5,"stop_id":"0899_01","name":"富ヶ谷","lat":35.66756,"lon":139.69137,"time":"23:16"},{"seq":6,"stop_id":"1558_01","name":"代々木八幡駅入口","lat":35.670077,"lon":139.687631,"time":"23:19"},{"seq":7,"stop_id":"1113_01","name":"八幡下","lat":35.672432,"lon":139.687491,"time":"23:19"},{"seq":8,"stop_id":"1121_01","name":"初台坂下","lat":35.674425,"lon":139.687631,"time":"23:20"},{"seq":9,"stop_id":"1430_01","name":"南初台","lat":35.676415,"lon":139.68765,"time":"23:21"},{"seq":10,"stop_id":"1120_01","name":"初台坂上","lat":35.679559,"lon":139.688498,"time":"23:22"},{"seq":11,"stop_id":"0841_01","name":"東京オペラシティ南","lat":35.680712,"lon":139.688595,"time":"23:23"},{"seq":12,"stop_id":"0571_01","name":"新国立劇場","lat":35.680734,"lon":139.686018,"time":"23:26"},{"seq":13,"stop_id":"1106_01","name":"幡代","lat":35.678274,"lon":139.680829,"time":"23:27"},{"seq":14,"stop_id":"1102_01","name":"幡ヶ谷駅","lat":35.676934,"lon":139.67657,"time":"23:28"},{"seq":15,"stop_id":"1103_01","name":"幡ヶ谷原町","lat":35.676038,"lon":139.673605,"time":"23:29"},{"seq":16,"stop_id":"0448_01","name":"笹塚中学","lat":35.67821,"lon":139.670204,"time":"23:31"},{"seq":17,"stop_id":"0446_01","name":"笹塚こども図書館","lat":35.679614,"lon":139.669854,"time":"23:32"},{"seq":18,"stop_id":"1012_01","name":"新山通り","lat":35.681038,"lon":139.669514,"time":"23:33"},{"seq":19,"stop_id":"1410_01","name":"南台三丁目","lat":35.68369,"lon":139.669287,"time":"23:34"},{"seq":20,"stop_id":"1409_01","name":"南台交差点","lat":35.68731,"lon":139.668914,"time":"23:35"},{"seq":21,"stop_id":"1241_01","name":"富士高校","lat":35.689141,"lon":139.668812,"time":"23:35"},{"seq":22,"stop_id":"0955_00","name":"中野車庫","lat":35.690824,"lon":139.668808,"time":"23:39"}],"trip_counts":{"weekday":0,"saturday":1,"holiday":1}}],"pattern_count":6},{"route_id":"238深夜","short_name":"渋６３深夜","full_short_name":"渋６３深夜","long_name":"","color":"#dd1f26","text_color":"#ffffff","patterns":[{"pattern_id":"238深夜-1","direction_id":"1","headsign":"","shape_id":"","trip_count":1,"sample_trip_id":"03_01_0612_07_012282","stop_count":22,"shape_point_count":22,"shape":[[35.658475,139.700372],[35.661746,139.699643],[35.664438,139.697236],[35.664981,139.694392],[35.66756,139.69137],[35.670077,139.687631],[35.672432,139.687491],[35.674425,139.687631],[35.676415,139.68765],[35.679559,139.688498],[35.680712,139.688595],[35.680734,139.686018],[35.678274,139.680829],[35.676934,139.67657],[35.676038,139.673605],[35.67821,139.670204],[35.679614,139.669854],[35.681038,139.669514],[35.68369,139.669287],[35.68731,139.668914],[35.689141,139.668812],[35.690824,139.668808]],"stops":[{"seq":1,"stop_id":"0492_13","name":"渋谷駅","lat":35.658475,"lon":139.700372,"time":"23:30"},{"seq":2,"stop_id":"0594_01","name":"神南一丁目","lat":35.661746,"lon":139.699643,"time":"23:32"},{"seq":3,"stop_id":"0494_01","name":"渋谷区役所","lat":35.664438,"lon":139.697236,"time":"23:34"},{"seq":4,"stop_id":"1295_01","name":"放送センター西口","lat":35.664981,"lon":139.694392,"time":"23:36"},{"seq":5,"stop_id":"0899_01","name":"富ヶ谷","lat":35.66756,"lon":139.69137,"time":"23:37"},{"seq":6,"stop_id":"1558_01","name":"代々木八幡駅入口","lat":35.670077,"lon":139.687631,"time":"23:40"},{"seq":7,"stop_id":"1113_01","name":"八幡下","lat":35.672432,"lon":139.687491,"time":"23:40"},{"seq":8,"stop_id":"1121_01","name":"初台坂下","lat":35.674425,"lon":139.687631,"time":"23:42"},{"seq":9,"stop_id":"1430_01","name":"南初台","lat":35.676415,"lon":139.68765,"time":"23:42"},{"seq":10,"stop_id":"1120_01","name":"初台坂上","lat":35.679559,"lon":139.688498,"time":"23:43"},{"seq":11,"stop_id":"0841_01","name":"東京オペラシティ南","lat":35.680712,"lon":139.688595,"time":"23:43"},{"seq":12,"stop_id":"0571_01","name":"新国立劇場","lat":35.680734,"lon":139.686018,"time":"23:45"},{"seq":13,"stop_id":"1106_01","name":"幡代","lat":35.678274,"lon":139.680829,"time":"23:46"},{"seq":14,"stop_id":"1102_01","name":"幡ヶ谷駅","lat":35.676934,"lon":139.67657,"time":"23:48"},{"seq":15,"stop_id":"1103_01","name":"幡ヶ谷原町","lat":35.676038,"lon":139.673605,"time":"23:49"},{"seq":16,"stop_id":"0448_01","name":"笹塚中学","lat":35.67821,"lon":139.670204,"time":"23:51"},{"seq":17,"stop_id":"0446_01","name":"笹塚こども図書館","lat":35.679614,"lon":139.669854,"time":"23:52"},{"seq":18,"stop_id":"1012_01","name":"新山通り","lat":35.681038,"lon":139.669514,"time":"23:52"},{"seq":19,"stop_id":"1410_01","name":"南台三丁目","lat":35.68369,"lon":139.669287,"time":"23:53"},{"seq":20,"stop_id":"1409_01","name":"南台交差点","lat":35.68731,"lon":139.668914,"time":"23:54"},{"seq":21,"stop_id":"1241_01","name":"富士高校","lat":35.689141,"lon":139.668812,"time":"23:54"},{"seq":22,"stop_id":"0955_00","name":"中野車庫","lat":35.690824,"lon":139.668808,"time":"23:58"}],"trip_counts":{"weekday":1,"saturday":0,"holiday":0}},{"pattern_id":"238深夜-2","direction_id":"0","headsign":"","shape_id":"","trip_count":1,"sample_trip_id":"03_01_1522_05_021551","stop_count":5,"shape_point_count":5,"shape":[[35.705196,139.666123],[35.701474,139.666927],[35.698149,139.667597],[35.694703,139.668143],[35.690824,139.668808]],"stops":[{"seq":1,"stop_id":"0952_01","name":"中野駅","lat":35.705196,"lon":139.666123,"time":"23:30"},{"seq":2,"stop_id":"0774_02","name":"中央五丁目","lat":35.701474,"lon":139.666927,"time":"23:31"},{"seq":3,"stop_id":"0616_02","name":"杉山公園","lat":35.698149,"lon":139.667597,"time":"23:32"},{"seq":4,"stop_id":"0530_02","name":"十貫坂上","lat":35.694703,"lon":139.668143,"time":"23:34"},{"seq":5,"stop_id":"0955_00","name":"中野車庫","lat":35.690824,"lon":139.668808,"time":"23:36"}],"trip_counts":{"weekday":1,"saturday":0,"holiday":0}}],"pattern_count":2},{"route_id":"240","short_name":"中９２","full_short_name":"中９２","long_name":"","color":"#dd1f26","text_color":"#ffffff","patterns":[{"pattern_id":"240-1","direction_id":"0","headsign":"","shape_id":"","trip_count":271,"sample_trip_id":"03_01_0032_02_002401","stop_count":21,"shape_point_count":21,"shape":[[35.707276,139.665106],[35.71074,139.66516],[35.714684,139.666586],[35.716095,139.668122],[35.718981,139.670129],[35.720817,139.671301],[35.723117,139.673296],[35.723736,139.671773],[35.723918,139.669545],[35.723843,139.666517],[35.72421,139.662681],[35.72659,139.662521],[35.728934,139.660821],[35.731004,139.65907],[35.732253,139.654238],[35.731987,139.650555],[35.732622,139.647428],[35.735357,139.647449],[35.736763,139.649474],[35.738141,139.654073],[35.738141,139.654073]],"stops":[{"seq":1,"stop_id":"1716_07","name":"中野駅北口","lat":35.707276,"lon":139.665106,"time":"14:57"},{"seq":2,"stop_id":"0043_01","name":"新井中野通り","lat":35.71074,"lon":139.66516,"time":"14:58"},{"seq":3,"stop_id":"0257_01","name":"北野神社前","lat":35.714684,"lon":139.666586,"time":"15:00"},{"seq":4,"stop_id":"0042_01","name":"令和小学校","lat":35.716095,"lon":139.668122,"time":"15:01"},{"seq":5,"stop_id":"0130_01","name":"大下橋","lat":35.718981,"lon":139.670129,"time":"15:03"},{"seq":6,"stop_id":"0514_01","name":"下田橋","lat":35.720817,"lon":139.671301,"time":"15:04"},{"seq":7,"stop_id":"0823_01","name":"哲学堂下","lat":35.723117,"lon":139.673296,"time":"15:05"},{"seq":8,"stop_id":"0114_01","name":"江古田一丁目","lat":35.723736,"lon":139.671773,"time":"15:06"},{"seq":9,"stop_id":"1363_01","name":"丸山車庫","lat":35.723918,"lon":139.669545,"time":"15:07"},{"seq":10,"stop_id":"0115_01","name":"江古田二丁目","lat":35.723843,"lon":139.666517,"time":"15:08"},{"seq":11,"stop_id":"0116_01","name":"江古田四丁目","lat":35.72421,"lon":139.662681,"time":"15:11"},{"seq":12,"stop_id":"0544_01","name":"浄風園前","lat":35.72659,"lon":139.662521,"time":"15:12"},{"seq":13,"stop_id":"0881_01","name":"徳田","lat":35.728934,"lon":139.660821,"time":"15:13"},{"seq":14,"stop_id":"0923_01","name":"豊玉中二丁目","lat":35.731004,"lon":139.65907,"time":"15:15"},{"seq":15,"stop_id":"0922_01","name":"豊玉中三丁目","lat":35.732253,"lon":139.654238,"time":"15:17"},{"seq":16,"stop_id":"0921_01","name":"豊玉小学校","lat":35.731987,"lon":139.650555,"time":"15:18"},{"seq":17,"stop_id":"1005_00","name":"南蔵院","lat":35.732622,"lon":139.647428,"time":"15:21"},{"seq":18,"stop_id":"0976_01","name":"中村北一丁目","lat":35.735357,"lon":139.647449,"time":"15:22"},{"seq":19,"stop_id":"1080_01","name":"練馬区役所","lat":35.736763,"lon":139.649474,"time":"15:23"},{"seq":20,"stop_id":"1079_00","name":"練馬駅","lat":35.738141,"lon":139.654073,"time":"15:26"},{"seq":21,"stop_id":"1079_00","name":"練馬駅","lat":35.738141,"lon":139.654073,"time":"15:31"}],"trip_counts":{"weekday":99,"saturday":87,"holiday":85}},{"pattern_id":"240-2","direction_id":"1","headsign":"","shape_id":"","trip_count":270,"sample_trip_id":"03_01_0032_03_002402","stop_count":18,"shape_point_count":18,"shape":[[35.73854,139.653911],[35.735248,139.654296],[35.735875,139.652134],[35.736378,139.648015],[35.73426,139.647581],[35.732135,139.648037],[35.732112,139.651669],[35.732379,139.654897],[35.731285,139.659039],[35.729249,139.660644],[35.726864,139.662594],[35.724432,139.662736],[35.719519,139.66342],[35.715676,139.665037],[35.713819,139.666241],[35.710581,139.665324],[35.707486,139.665339],[35.705311,139.665818]],"stops":[{"seq":1,"stop_id":"1079_02","name":"練馬駅","lat":35.73854,"lon":139.653911,"time":"15:40"},{"seq":2,"stop_id":"0510_02","name":"下新街","lat":35.735248,"lon":139.654296,"time":"15:43"},{"seq":3,"stop_id":"1080_02","name":"練馬区役所","lat":35.735875,"lon":139.652134,"time":"15:43"},{"seq":4,"stop_id":"1710_01","name":"東電支社前","lat":35.736378,"lon":139.648015,"time":"15:45"},{"seq":5,"stop_id":"0976_02","name":"中村北一丁目","lat":35.73426,"lon":139.647581,"time":"15:47"},{"seq":6,"stop_id":"1005_02","name":"南蔵院","lat":35.732135,"lon":139.648037,"time":"15:49"},{"seq":7,"stop_id":"0921_02","name":"豊玉小学校","lat":35.732112,"lon":139.651669,"time":"15:50"},{"seq":8,"stop_id":"0922_02","name":"豊玉中三丁目","lat":35.732379,"lon":139.654897,"time":"15:51"},{"seq":9,"stop_id":"0923_00","name":"豊玉中二丁目","lat":35.731285,"lon":139.659039,"time":"15:54"},{"seq":10,"stop_id":"0881_02","name":"徳田","lat":35.729249,"lon":139.660644,"time":"15:55"},{"seq":11,"stop_id":"0544_02","name":"浄風園前","lat":35.726864,"lon":139.662594,"time":"15:56"},{"seq":12,"stop_id":"0116_02","name":"江古田四丁目","lat":35.724432,"lon":139.662736,"time":"15:57"},{"seq":13,"stop_id":"1078_02","name":"沼袋駅","lat":35.719519,"lon":139.66342,"time":"16:01"},{"seq":14,"stop_id":"0044_00","name":"新井四丁目","lat":35.715676,"lon":139.665037,"time":"16:02"},{"seq":15,"stop_id":"0257_02","name":"北野神社前","lat":35.713819,"lon":139.666241,"time":"16:04"},{"seq":16,"stop_id":"0043_02","name":"新井中野通り","lat":35.710581,"lon":139.665324,"time":"16:05"},{"seq":17,"stop_id":"0953_02","name":"中野区役所","lat":35.707486,"lon":139.665339,"time":"16:06"},{"seq":18,"stop_id":"0952_00","name":"中野駅","lat":35.705311,"lon":139.665818,"time":"16:11"}],"trip_counts":{"weekday":98,"saturday":86,"holiday":86}},{"pattern_id":"240-10","direction_id":"1","headsign":"","shape_id":"","trip_count":88,"sample_trip_id":"03_01_0041_06_025792","stop_count":2,"shape_point_count":2,"shape":[[35.705807,139.665457],[35.690824,139.668808]],"stops":[{"seq":1,"stop_id":"0952_11","name":"中野駅","lat":35.705807,"lon":139.665457,"time":"08:16"},{"seq":2,"stop_id":"0955_00","name":"中野車庫","lat":35.690824,"lon":139.668808,"time":"08:26"}],"trip_counts":{"weekday":33,"saturday":29,"holiday":26}},{"pattern_id":"240-4","direction_id":"1","headsign":"","shape_id":"","trip_count":15,"sample_trip_id":"03_01_0282_08_002412","stop_count":17,"shape_point_count":17,"shape":[[35.707276,139.665106],[35.71074,139.66516],[35.714684,139.666586],[35.716095,139.668122],[35.718981,139.670129],[35.720817,139.671301],[35.723117,139.673296],[35.723736,139.671773],[35.723918,139.669545],[35.723843,139.666517],[35.72421,139.662681],[35.72659,139.662521],[35.728934,139.660821],[35.731004,139.65907],[35.732253,139.654238],[35.731987,139.650555],[35.732622,139.647428]],"stops":[{"seq":1,"stop_id":"1716_07","name":"中野駅北口","lat":35.707276,"lon":139.665106,"time":"20:40"},{"seq":2,"stop_id":"0043_01","name":"新井中野通り","lat":35.71074,"lon":139.66516,"time":"20:41"},{"seq":3,"stop_id":"0257_01","name":"北野神社前","lat":35.714684,"lon":139.666586,"time":"20:43"},{"seq":4,"stop_id":"0042_01","name":"令和小学校","lat":35.716095,"lon":139.668122,"time":"20:44"},{"seq":5,"stop_id":"0130_01","name":"大下橋","lat":35.718981,"lon":139.670129,"time":"20:45"},{"seq":6,"stop_id":"0514_01","name":"下田橋","lat":35.720817,"lon":139.671301,"time":"20:46"},{"seq":7,"stop_id":"0823_01","name":"哲学堂下","lat":35.723117,"lon":139.673296,"time":"20:47"},{"seq":8,"stop_id":"0114_01","name":"江古田一丁目","lat":35.723736,"lon":139.671773,"time":"20:48"},{"seq":9,"stop_id":"1363_01","name":"丸山車庫","lat":35.723918,"lon":139.669545,"time":"20:48"},{"seq":10,"stop_id":"0115_01","name":"江古田二丁目","lat":35.723843,"lon":139.666517,"time":"20:49"},{"seq":11,"stop_id":"0116_01","name":"江古田四丁目","lat":35.72421,"lon":139.662681,"time":"20:52"},{"seq":12,"stop_id":"0544_01","name":"浄風園前","lat":35.72659,"lon":139.662521,"time":"20:53"},{"seq":13,"stop_id":"0881_01","name":"徳田","lat":35.728934,"lon":139.660821,"time":"20:54"},{"seq":14,"stop_id":"0923_01","name":"豊玉中二丁目","lat":35.731004,"lon":139.65907,"time":"20:56"},{"seq":15,"stop_id":"0922_01","name":"豊玉中三丁目","lat":35.732253,"lon":139.654238,"time":"20:58"},{"seq":16,"stop_id":"0921_01","name":"豊玉小学校","lat":35.731987,"lon":139.650555,"time":"20:59"},{"seq":17,"stop_id":"1005_00","name":"南蔵院","lat":35.732622,"lon":139.647428,"time":"21:02"}],"trip_counts":{"weekday":5,"saturday":5,"holiday":5}},{"pattern_id":"240-9","direction_id":"1","headsign":"","shape_id":"","trip_count":8,"sample_trip_id":"03_01_0041_02_011622","stop_count":10,"shape_point_count":10,"shape":[[35.731285,139.659039],[35.729249,139.660644],[35.726864,139.662594],[35.724432,139.662736],[35.719519,139.66342],[35.715676,139.665037],[35.713819,139.666241],[35.710581,139.665324],[35.707486,139.665339],[35.705311,139.665818]],"stops":[{"seq":1,"stop_id":"0923_00","name":"豊玉中二丁目","lat":35.731285,"lon":139.659039,"time":"06:38"},{"seq":2,"stop_id":"0881_02","name":"徳田","lat":35.729249,"lon":139.660644,"time":"06:39"},{"seq":3,"stop_id":"0544_02","name":"浄風園前","lat":35.726864,"lon":139.662594,"time":"06:40"},{"seq":4,"stop_id":"0116_02","name":"江古田四丁目","lat":35.724432,"lon":139.662736,"time":"06:41"},{"seq":5,"stop_id":"1078_02","name":"沼袋駅","lat":35.719519,"lon":139.66342,"time":"06:44"},{"seq":6,"stop_id":"0044_00","name":"新井四丁目","lat":35.715676,"lon":139.665037,"time":"06:45"},{"seq":7,"stop_id":"0257_02","name":"北野神社前","lat":35.713819,"lon":139.666241,"time":"06:47"},{"seq":8,"stop_id":"0043_02","name":"新井中野通り","lat":35.710581,"lon":139.665324,"time":"06:48"},{"seq":9,"stop_id":"0953_02","name":"中野区役所","lat":35.707486,"lon":139.665339,"time":"06:49"},{"seq":10,"stop_id":"0952_00","name":"中野駅","lat":35.705311,"lon":139.665818,"time":"06:53"}],"trip_counts":{"weekday":5,"saturday":3,"holiday":0}},