{"id":"sendai","label":"仙台市営バス","generated_from":"Sendai_city_bus_realtime_information-20260601.zip","map_center":[38.2682,140.8694],"map_zoom":12,"route_count":339,"pattern_count":471,"routes":[{"route_id":"10000","short_name":"10","full_short_name":"10","long_name":"","color":"#A3D742","text_color":"#050505","patterns":[{"pattern_id":"10000-1","direction_id":"0","headsign":"八木山動物公園駅","shape_id":"","trip_count":41,"sample_trip_id":"30_1_13003850","stop_count":11,"shape_point_count":11,"shape":[[38.247966,140.824642],[38.250409,140.825693],[38.253304,140.825901],[38.257752,140.830939],[38.255084,140.835237],[38.255526,140.838201],[38.25503,140.840957],[38.253827,140.845147],[38.250963,140.85454],[38.244416,140.846433],[38.243392,140.843405]],"stops":[{"seq":1,"stop_id":"7439_10","name":"青葉台","lat":38.247966,"lon":140.824642,"time":"06:27"},{"seq":2,"stop_id":"7437_10","name":"青葉台下","lat":38.250409,"lon":140.825693,"time":"06:28"},{"seq":3,"stop_id":"7435_10","name":"ナノテラス入口","lat":38.253304,"lon":140.825901,"time":"06:28"},{"seq":4,"stop_id":"7433_10","name":"宮教大前","lat":38.257752,"lon":140.830939,"time":"06:29"},{"seq":5,"stop_id":"7405_10","name":"青葉山駅","lat":38.255084,"lon":140.835237,"time":"06:31"},{"seq":6,"stop_id":"7407_10","name":"工学部西","lat":38.255526,"lon":140.838201,"time":"06:32"},{"seq":7,"stop_id":"7409_10","name":"工学部中央","lat":38.25503,"lon":140.840957,"time":"06:33"},{"seq":8,"stop_id":"7411_10","name":"工学部東","lat":38.253827,"lon":140.845147,"time":"06:33"},{"seq":9,"stop_id":"7413_10","name":"仙台城跡南","lat":38.250963,"lon":140.85454,"time":"06:35"},{"seq":10,"stop_id":"7024_50","name":"八木山動物公園東門前","lat":38.244416,"lon":140.846433,"time":"06:37"},{"seq":11,"stop_id":"7051_0","name":"八木山動物公園駅","lat":38.243392,"lon":140.843405,"time":"06:38"}],"trip_counts":{"weekday":16,"saturday":13,"holiday":12}},{"pattern_id":"10000-2","direction_id":"1","headsign":"宮教大・青葉台","shape_id":"","trip_count":37,"sample_trip_id":"30_1_13003860","stop_count":11,"shape_point_count":11,"shape":[[38.243362,140.84295],[38.244559,140.846339],[38.251076,140.854328],[38.253501,140.845152],[38.254973,140.840756],[38.255402,140.83834],[38.255084,140.835237],[38.257752,140.830939],[38.253304,140.825901],[38.250409,140.825693],[38.248004,140.824639]],"stops":[{"seq":1,"stop_id":"7051_11","name":"八木山動物公園駅","lat":38.243362,"lon":140.84295,"time":"21:48"},{"seq":2,"stop_id":"7024_10","name":"八木山動物公園東門前","lat":38.244559,"lon":140.846339,"time":"21:49"},{"seq":3,"stop_id":"7413_50","name":"仙台城跡南","lat":38.251076,"lon":140.854328,"time":"21:51"},{"seq":4,"stop_id":"7411_50","name":"工学部東","lat":38.253501,"lon":140.845152,"time":"21:54"},{"seq":5,"stop_id":"7409_50","name":"工学部中央","lat":38.254973,"lon":140.840756,"time":"21:55"},{"seq":6,"stop_id":"7407_50","name":"工学部西","lat":38.255402,"lon":140.83834,"time":"21:55"},{"seq":7,"stop_id":"7405_10","name":"青葉山駅","lat":38.255084,"lon":140.835237,"time":"21:57"},{"seq":8,"stop_id":"7433_10","name":"宮教大前","lat":38.257752,"lon":140.830939,"time":"21:58"},{"seq":9,"stop_id":"7435_10","name":"ナノテラス入口","lat":38.253304,"lon":140.825901,"time":"21:59"},{"seq":10,"stop_id":"7437_10","name":"青葉台下","lat":38.250409,"lon":140.825693,"time":"22:00"},{"seq":11,"stop_id":"7439_0","name":"青葉台","lat":38.248004,"lon":140.824639,"time":"22:01"}],"trip_counts":{"weekday":15,"saturday":11,"holiday":11}}],"pattern_count":2},{"route_id":"10002","short_name":"10","full_short_name":"10","long_name":"","color":"#A3D742","text_color":"#050505","patterns":[{"pattern_id":"10002-3","direction_id":"1","headsign":"南仙台駅・四郎丸","shape_id":"","trip_count":44,"sample_trip_id":"30_1_13000620","stop_count":29,"shape_point_count":29,"shape":[[38.228743,140.882397],[38.227338,140.884949],[38.223219,140.883955],[38.219767,140.883125],[38.216856,140.883096],[38.214533,140.884701],[38.210449,140.884595],[38.203382,140.884939],[38.198886,140.885048],[38.197292,140.883666],[38.197484,140.88577],[38.197523,140.889407],[38.200353,140.894581],[38.20068,140.898084],[38.200414,140.900323],[38.199961,140.90253],[38.199773,140.905515],[38.198504,140.908066],[38.195042,140.908142],[38.193929,140.906458],[38.191865,140.904485],[38.189967,140.903668],[38.19048,140.906198],[38.190936,140.909807],[38.192252,140.91276],[38.192367,140.915971],[38.191816,140.919843],[38.191658,140.923309],[38.189547,140.929342]],"stops":[{"seq":1,"stop_id":"7101_51","name":"長町四丁目長町営業所前","lat":38.228743,"lon":140.882397,"time":"22:28"},{"seq":2,"stop_id":"6007_50","name":"長町駅・たいはっくる前","lat":38.227338,"lon":140.884949,"time":"22:30"},{"seq":3,"stop_id":"6015_50","name":"南警察署前","lat":38.223219,"lon":140.883955,"time":"22:31"},{"seq":4,"stop_id":"6017_50","name":"長町六丁目","lat":38.219767,"lon":140.883125,"time":"22:32"},{"seq":5,"stop_id":"6020_50","name":"太子堂駅前","lat":38.216856,"lon":140.883096,"time":"22:33"},{"seq":6,"stop_id":"6019_50","name":"諏訪町","lat":38.214533,"lon":140.884701,"time":"22:34"},{"seq":7,"stop_id":"6021_50","name":"東大野田","lat":38.210449,"lon":140.884595,"time":"22:35"},{"seq":8,"stop_id":"6023_50","name":"中田一丁目","lat":38.203382,"lon":140.884939,"time":"22:37"},{"seq":9,"stop_id":"6029_50","name":"中田三丁目","lat":38.198886,"lon":140.885048,"time":"22:38"},{"seq":10,"stop_id":"6163_50","name":"南仙台駅東口","lat":38.197292,"lon":140.883666,"time":"22:43"},{"seq":11,"stop_id":"6027_51","name":"中田五丁目","lat":38.197484,"lon":140.88577,"time":"22:43"},{"seq":12,"stop_id":"6133_50","name":"中田中学校前","lat":38.197523,"lon":140.889407,"time":"22:44"},{"seq":13,"stop_id":"6103_50","name":"東中田六丁目","lat":38.200353,"lon":140.894581,"time":"22:47"},{"seq":14,"stop_id":"6104_50","name":"東中田二丁目","lat":38.20068,"lon":140.898084,"time":"22:48"},{"seq":15,"stop_id":"6105_50","name":"東中田五丁目","lat":38.200414,"lon":140.900323,"time":"22:48"},{"seq":16,"stop_id":"6106_50","name":"中田中央公園入口","lat":38.199961,"lon":140.90253,"time":"22:49"},{"seq":17,"stop_id":"6107_50","name":"袋原","lat":38.199773,"lon":140.905515,"time":"22:49"},{"seq":18,"stop_id":"6108_50","name":"袋原四丁目","lat":38.198504,"lon":140.908066,"time":"22:50"},{"seq":19,"stop_id":"6109_50","name":"畑中","lat":38.195042,"lon":140.908142,"time":"22:51"},{"seq":20,"stop_id":"6111_50","name":"袋原市営住宅前","lat":38.193929,"lon":140.906458,"time":"22:51"},{"seq":21,"stop_id":"6112_50","name":"袋原南","lat":38.191865,"lon":140.904485,"time":"22:51"},{"seq":22,"stop_id":"6113_10","name":"堰場","lat":38.189967,"lon":140.903668,"time":"22:52"},{"seq":23,"stop_id":"6114_10","name":"境","lat":38.19048,"lon":140.906198,"time":"22:53"},{"seq":24,"stop_id":"6115_10","name":"四郎丸小学校前","lat":38.190936,"lon":140.909807,"time":"22:53"},{"seq":25,"stop_id":"6116_50","name":"東中田市民センター前","lat":38.192252,"lon":140.91276,"time":"22:54"},{"seq":26,"stop_id":"6117_10","name":"四郎丸市営住宅前","lat":38.192367,"lon":140.915971,"time":"22:54"},{"seq":27,"stop_id":"6119_10","name":"浜堀","lat":38.191816,"lon":140.919843,"time":"22:55"},{"seq":28,"stop_id":"6121_10","name":"昭和北","lat":38.191658,"lon":140.923309,"time":"22:56"},{"seq":29,"stop_id":"6123_0","name":"四郎丸","lat":38.189547,"lon":140.929342,"time":"22:57"}],"trip_counts":{"weekday":11,"saturday":17,"holiday":16}},{"pattern_id":"10002-2","direction_id":"0","headsign":"南仙台駅・長町(営)","shape_id":"","trip_count":41,"sample_trip_id":"30_1_13002020","stop_count":28,"shape_point_count":28,"shape":[[38.189606,140.92919],[38.191658,140.923309],[38.191816,140.919843],[38.192367,140.915971],[38.192238,140.912831],[38.190936,140.909807],[38.19048,140.906198],[38.189967,140.903668],[38.192114,140.904717],[38.193883,140.906365],[38.195066,140.90794],[38.197897,140.9083],[38.199749,140.905373],[38.199962,140.902315],[38.200539,140.898922],[38.200317,140.89445],[38.197345,140.889194],[38.197328,140.886106],[38.197145,140.883679],[38.199302,140.884963],[38.20292,140.884785],[38.210045,140.884537],[38.214047,140.884577],[38.217232,140.882312],[38.220166,140.882929],[38.22416,140.884038],[38.228002,140.884745],[38.228857,140.882343]],"stops":[{"seq":1,"stop_id":"6123_10","name":"四郎丸","lat":38.189606,"lon":140.92919,"time":"17:45"},{"seq":2,"stop_id":"6121_10","name":"昭和北","lat":38.191658,"lon":140.923309,"time":"17:46"},{"seq":3,"stop_id":"6119_10","name":"浜堀","lat":38.191816,"lon":140.919843,"time":"17:46"},{"seq":4,"stop_id":"6117_10","name":"四郎丸市営住宅前","lat":38.192367,"lon":140.915971,"time":"17:47"},{"seq":5,"stop_id":"6116_10","name":"東中田市民センター前","lat":38.192238,"lon":140.912831,"time":"17:47"},{"seq":6,"stop_id":"6115_10","name":"四郎丸小学校前","lat":38.190936,"lon":140.909807,"time":"17:48"},{"seq":7,"stop_id":"6114_10","name":"境","lat":38.19048,"lon":140.906198,"time":"17:49"},{"seq":8,"stop_id":"6113_10","name":"堰場","lat":38.189967,"lon":140.903668,"time":"17:50"},{"seq":9,"stop_id":"6112_10","name":"袋原南","lat":38.192114,"lon":140.904717,"time":"17:50"},{"seq":10,"stop_id":"6111_10","name":"袋原市営住宅前","lat":38.193883,"lon":140.906365,"time":"17:51"},{"seq":11,"stop_id":"6109_10","name":"畑中","lat":38.195066,"lon":140.90794,"time":"17:52"},{"seq":12,"stop_id":"6108_10","name":"袋原四丁目","lat":38.197897,"lon":140.9083,"time":"17:53"},{"seq":13,"stop_id":"6107_10","name":"袋原","lat":38.199749,"lon":140.905373,"time":"17:55"},{"seq":14,"stop_id":"6106_10","name":"中田中央公園入口","lat":38.199962,"lon":140.902315,"time":"17:55"},{"seq":15,"stop_id":"6105_10","name":"東中田五丁目","lat":38.200539,"lon":140.898922,"time":"17:56"},{"seq":16,"stop_id":"6103_10","name":"東中田六丁目","lat":38.200317,"lon":140.89445,"time":"17:57"},{"seq":17,"stop_id":"6133_10","name":"中田中学校前","lat":38.197345,"lon":140.889194,"time":"18:01"},{"seq":18,"stop_id":"6027_111","name":"中田五丁目","lat":38.197328,"lon":140.886106,"time":"18:02"},{"seq":19,"stop_id":"6163_10","name":"南仙台駅東口","lat":38.197145,"lon":140.883679,"time":"18:08"},{"seq":20,"stop_id":"6029_10","name":"中田三丁目","lat":38.199302,"lon":140.884963,"time":"18:09"},{"seq":21,"stop_id":"6023_10","name":"中田一丁目","lat":38.20292,"lon":140.884785,"time":"18:10"},{"seq":22,"stop_id":"6021_10","name":"東大野田","lat":38.210045,"lon":140.884537,"time":"18:12"},{"seq":23,"stop_id":"6019_10","name":"諏訪町","lat":38.214047,"lon":140.884577,"time":"18:13"},{"seq":24,"stop_id":"6020_10","name":"太子堂駅前","lat":38.217232,"lon":140.882312,"time":"18:14"},{"seq":25,"stop_id":"6017_10","name":"長町六丁目","lat":38.220166,"lon":140.882929,"time":"18:15"},{"seq":26,"stop_id":"6015_10","name":"南警察署前","lat":38.22416,"lon":140.884038,"time":"18:16"},{"seq":27,"stop_id":"6007_10","name":"長町駅・たいはっくる前","lat":38.228002,"lon":140.884745,"time":"18:18"},{"seq":28,"stop_id":"7101_0","name":"長町四丁目長町営業所前","lat":38.228857,"lon":140.882343,"time":"18:20"}],"trip_counts":{"weekday":8,"saturday":17,"holiday":16}},{"pattern_id":"10002-1","direction_id":"1","headsign":"南仙台駅・四郎丸","shape_id":"","trip_count":6,"sample_trip_id":"30_1_13002730","stop_count":31,"shape_point_count":31,"shape":[[38.224011,140.876438],[38.228396,140.878078],[38.229055,140.881165],[38.227338,140.884949],[38.223219,140.883955],[38.219767,140.883125],[38.216856,140.883096],[38.214533,140.884701],[38.210449,140.884595],[38.203382,140.884939],[38.198886,140.885048],[38.197292,140.883666],[38.197484,140.88577],[38.197523,140.889407],[38.200353,140.894581],[38.20068,140.898084],[38.200414,140.900323],[38.199961,140.90253],[38.199773,140.905515],[38.198504,140.908066],[38.195042,140.908142],[38.193929,140.906458],[38.191865,140.904485],[38.189967,140.903668],[38.19048,140.906198],[38.190936,140.909807],[38.192252,140.91276],[38.192367,140.915971],[38.191816,140.919843],[38.191658,140.923309],[38.189547,140.929342]],"stops":[{"seq":1,"stop_id":"7111_51","name":"長町南駅・太白区役所前","lat":38.224011,"lon":140.876438,"time":"08:20"},{"seq":2,"stop_id":"7115_10","name":"長町七丁目北","lat":38.228396,"lon":140.878078,"time":"08:22"},{"seq":3,"stop_id":"7101_10","name":"長町四丁目長町営業所前","lat":38.229055,"lon":140.881165,"time":"08:23"},{"seq":4,"stop_id":"6007_50","name":"長町駅・たいはっくる前","lat":38.227338,"lon":140.884949,"time":"08:25"},{"seq":5,"stop_id":"6015_50","name":"南警察署前","lat":38.223219,"lon":140.883955,"time":"08:26"},{"seq":6,"stop_id":"6017_50","name":"長町六丁目","lat":38.219767,"lon":140.883125,"time":"08:27"},{"seq":7,"stop_id":"6020_50","name":"太子堂駅前","lat":38.216856,"lon":140.883096,"time":"08:28"},{"seq":8,"stop_id":"6019_50","name":"諏訪町","lat":38.214533,"lon":140.884701,"time":"08:29"},{"seq":9,"stop_id":"6021_50","name":"東大野田","lat":38.210449,"lon":140.884595,"time":"08:31"},{"seq":10,"stop_id":"6023_50","name":"中田一丁目","lat":38.203382,"lon":140.884939,"time":"08:34"},{"seq":11,"stop_id":"6029_50","name":"中田三丁目","lat":38.198886,"lon":140.885048,"time":"08:35"},{"seq":12,"stop_id":"6163_50","name":"南仙台駅東口","lat":38.197292,"lon":140.883666,"time":"08:39"},{"seq":13,"stop_id":"6027_51","name":"中田五丁目","lat":38.197484,"lon":140.88577,"time":"08:39"},{"seq":14,"stop_id":"6133_50","name":"中田中学校前","lat":38.197523,"lon":140.889407,"time":"08:40"},{"seq":15,"stop_id":"6103_50","name":"東中田六丁目","lat":38.200353,"lon":140.894581,"time":"08:43"},{"seq":16,"stop_id":"6104_50","name":"東中田二丁目","lat":38.20068,"lon":140.898084,"time":"08:44"},{"seq":17,"stop_id":"6105_50","name":"東中田五丁目","lat":38.200414,"lon":140.900323,"time":"08:44"},{"seq":18,"stop_id":"6106_50","name":"中田中央公園入口","lat":38.199961,"lon":140.90253,"time":"08:45"},{"seq":19,"stop_id":"6107_50","name":"袋原","lat":38.199773,"lon":140.905515,"time":"08:46"},{"seq":20,"stop_id":"6108_50","name":"袋原四丁目","lat":38.198504,"lon":140.908066,"time":"08:47"},{"seq":21,"stop_id":"6109_50","name":"畑中","lat":38.195042,"lon":140.908142,"time":"08:48"},{"seq":22,"stop_id":"6111_50","name":"袋原市営住宅前","lat":38.193929,"lon":140.906458,"time":"08:48"},{"seq":23,"stop_id":"6112_50","name":"袋原南","lat":38.191865,"lon":140.904485,"time":"08:49"},{"seq":24,"stop_id":"6113_10","name":"堰場","lat":38.189967,"lon":140.903668,"time":"08:50"},{"seq":25,"stop_id":"6114_10","name":"境","lat":38.19048,"lon":140.906198,"time":"08:51"},{"seq":26,"stop_id":"6115_10","name":"四郎丸小学校前","lat":38.190936,"lon":140.909807,"time":"08:51"},{"seq":27,"stop_id":"6116_50","name":"東中田市民センター前","lat":38.192252,"lon":140.91276,"time":"08:52"},{"seq":28,"stop_id":"6117_10","name":"四郎丸市営住宅前","lat":38.192367,"lon":140.915971,"time":"08:52"},{"seq":29,"stop_id":"6119_10","name":"浜堀","lat":38.191816,"lon":140.919843,"time":"08:53"},{"seq":30,"stop_id":"6121_10","name":"昭和北","lat":38.191658,"lon":140.923309,"time":"08:54"},{"seq":31,"stop_id":"6123_0","name":"四郎丸","lat":38.189547,"lon":140.929342,"time":"08:55"}],"trip_counts":{"weekday":6,"saturday":0,"holiday":0}}],"pattern_count":3},{"route_id":"10003","short_name":"10","full_short_name":"10","long_name":"","color":"#A3D742","text_color":"#050505","patterns":[{"pattern_id":"10003-1","direction_id":"1","headsign":"長町駅・四郎丸","shape_id":"","trip_count":3,"sample_trip_id":"30_1_13002940","stop_count":33,"shape_point_count":33,"shape":[[38.231977,140.888789],[38.234418,140.888635],[38.233626,140.887247],[38.231801,140.886234],[38.23041,140.885488],[38.227338,140.884949],[38.223219,140.883955],[38.219767,140.883125],[38.216856,140.883096],[38.214533,140.884701],[38.210449,140.884595],[38.203382,140.884939],[38.198886,140.885048],[38.197292,140.883666],[38.197484,140.88577],[38.197523,140.889407],[38.200353,140.894581],[38.20068,140.898084],[38.200414,140.900323],[38.199961,140.90253],[38.199773,140.905515],[38.198504,140.908066],[38.195042,140.908142],[38.193929,140.906458],[38.191865,140.904485],[38.189967,140.903668],[38.19048,140.906198],[38.190936,140.909807],[38.192252,140.91276],[38.192367,140.915971],[38.191816,140.919843],[38.191658,140.923309],[38.189547,140.929342]],"stops":[{"seq":1,"stop_id":"6000_50","name":"市立病院","lat":38.231977,"lon":140.888789,"time":"10:43"},{"seq":2,"stop_id":"6002_50","name":"長町一丁目東","lat":38.234418,"lon":140.888635,"time":"10:43"},{"seq":3,"stop_id":"6001_50","name":"長町一丁目駅","lat":38.233626,"lon":140.887247,"time":"10:45"},{"seq":4,"stop_id":"6003_50","name":"長町三丁目","lat":38.231801,"lon":140.886234,"time":"10:46"},{"seq":5,"stop_id":"6005_50","name":"長町三丁目南","lat":38.23041,"lon":140.885488,"time":"10:47"},{"seq":6,"stop_id":"6007_50","name":"長町駅・たいはっくる前","lat":38.227338,"lon":140.884949,"time":"10:50"},{"seq":7,"stop_id":"6015_50","name":"南警察署前","lat":38.223219,"lon":140.883955,"time":"10:51"},{"seq":8,"stop_id":"6017_50","name":"長町六丁目","lat":38.219767,"lon":140.883125,"time":"10:52"},{"seq":9,"stop_id":"6020_50","name":"太子堂駅前","lat":38.216856,"lon":140.883096,"time":"10:53"},{"seq":10,"stop_id":"6019_50","name":"諏訪町","lat":38.214533,"lon":140.884701,"time":"10:54"},{"seq":11,"stop_id":"6021_50","name":"東大野田","lat":38.210449,"lon":140.884595,"time":"10:56"},{"seq":12,"stop_id":"6023_50","name":"中田一丁目","lat":38.203382,"lon":140.884939,"time":"10:59"},{"seq":13,"stop_id":"6029_50","name":"中田三丁目","lat":38.198886,"lon":140.885048,"time":"11:00"},{"seq":14,"stop_id":"6163_50","name":"南仙台駅東口","lat":38.197292,"lon":140.883666,"time":"11:04"},{"seq":15,"stop_id":"6027_51","name":"中田五丁目","lat":38.197484,"lon":140.88577,"time":"11:04"},{"seq":16,"stop_id":"6133_50","name":"中田中学校前","lat":38.197523,"lon":140.889407,"time":"11:05"},{"seq":17,"stop_id":"6103_50","name":"東中田六丁目","lat":38.200353,"lon":140.894581,"time":"11:08"},{"seq":18,"stop_id":"6104_50","name":"東中田二丁目","lat":38.20068,"lon":140.898084,"time":"11:09"},{"seq":19,"stop_id":"6105_50","name":"東中田五丁目","lat":38.200414,"lon":140.900323,"time":"11:09"},{"seq":20,"stop_id":"6106_50","name":"中田中央公園入口","lat":38.199961,"lon":140.90253,"time":"11:10"},{"seq":21,"stop_id":"6107_50","name":"袋原","lat":38.199773,"lon":140.905515,"time":"11:11"},{"seq":22,"stop_id":"6108_50","name":"袋原四丁目","lat":38.198504,"lon":140.908066,"time":"11:12"},{"seq":23,"stop_id":"6109_50","name":"畑中","lat":38.195042,"lon":140.908142,"time":"11:13"},{"seq":24,"stop_id":"6111_50","name":"袋原市営住宅前","lat":38.193929,"lon":140.906458,"time":"11:13"},{"seq":25,"stop_id":"6112_50","name":"袋原南","lat":38.191865,"lon":140.904485,"time":"11:14"},{"seq":26,"stop_id":"6113_10","name":"堰場","lat":38.189967,"lon":140.903668,"time":"11:15"},{"seq":27,"stop_id":"6114_10","name":"境","lat":38.19048,"lon":140.906198,"time":"11:16"},{"seq":28,"stop_id":"6115_10","name":"四郎丸小学校前","lat":38.190936,"lon":140.909807,"time":"11:16"},{"seq":29,"stop_id":"6116_50","name":"東中田市民センター前","lat":38.192252,"lon":140.91276,"time":"11:17"},{"seq":30,"stop_id":"6117_10","name":"四郎丸市営住宅前","lat":38.192367,"lon":140.915971,"time":"11:17"},{"seq":31,"stop_id":"6119_10","name":"浜堀","lat":38.191816,"lon":140.919843,"time":"11:18"},{"seq":32,"stop_id":"6121_10","name":"昭和北","lat":38.191658,"lon":140.923309,"time":"11:19"},{"seq":33,"stop_id":"6123_0","name":"四郎丸","lat":38.189547,"lon":140.929342,"time":"11:20"}],"trip_counts":{"weekday":3,"saturday":0,"holiday":0}}],"pattern_count":1},{"route_id":"10004","short_name":"10","full_short_name":"10","long_name":"","color":"#A3D742","text_color":"#050505","patterns":[{"pattern_id":"10004-3","direction_id":"0","headsign":"泉中央駅","shape_id":"","trip_count":10,"sample_trip_id":"50_2_25003830","stop_count":34,"shape_point_count":34,"shape":[[38.418934,140.72319],[38.390061,140.720109],[38.381241,140.727547],[38.379029,140.74029],[38.374955,140.747483],[38.373085,140.760508],[38.370834,140.767394],[38.366774,140.772892],[38.363956,140.776538],[38.358789,140.780989],[38.355516,140.78388],[38.354917,140.786141],[38.350977,140.793959],[38.34756,140.7954],[38.346226,140.796979],[38.343883,140.797384],[38.343334,140.798936],[38.340414,140.80093],[38.338258,140.801363],[38.335891,140.802205],[38.333517,140.802307],[38.328469,140.806169],[38.329181,140.812616],[38.329146,140.815423],[38.328442,140.82027],[38.328021,140.835014],[38.328991,140.84288],[38.327154,140.84987],[38.325595,140.862604],[38.326381,140.869631],[38.325491,140.875202],[38.325142,140.878299],[38.324145,140.880551],[38.322924,140.88101]],"stops":[{"seq":1,"stop_id":"1160_10","name":"スプリングバレー仙台泉スキー場","lat":38.418934,"lon":140.72319,"time":"08:40"},{"seq":2,"stop_id":"1155_10","name":"泉岳自然ふれあい館","lat":38.390061,"lon":140.720109,"time":"08:50"},{"seq":3,"stop_id":"1153_10","name":"芳の平","lat":38.381241,"lon":140.727547,"time":"08:52"},{"seq":4,"stop_id":"1151_10","name":"笈坂","lat":38.379029,"lon":140.74029,"time":"08:54"},{"seq":5,"stop_id":"1149_10","name":"笈坂東","lat":38.374955,"lon":140.747483,"time":"08:56"},{"seq":6,"stop_id":"1147_10","name":"金森橋","lat":38.373085,"lon":140.760508,"time":"09:00"},{"seq":7,"stop_id":"1145_10","name":"旗枠","lat":38.370834,"lon":140.767394,"time":"09:01"},{"seq":8,"stop_id":"1143_10","name":"七北田ダム入口","lat":38.366774,"lon":140.772892,"time":"09:03"},{"seq":9,"stop_id":"1141_10","name":"南切立","lat":38.363956,"lon":140.776538,"time":"09:04"},{"seq":10,"stop_id":"1139_10","name":"川崎上","lat":38.358789,"lon":140.780989,"time":"09:05"},{"seq":11,"stop_id":"1137_10","name":"泉川崎","lat":38.355516,"lon":140.78388,"time":"09:06"},{"seq":12,"stop_id":"1135_10","name":"川崎入口","lat":38.354917,"lon":140.786141,"time":"09:06"},{"seq":13,"stop_id":"1133_10","name":"川向","lat":38.350977,"lon":140.793959,"time":"09:08"},{"seq":14,"stop_id":"1132_10","name":"宝積寺前","lat":38.34756,"lon":140.7954,"time":"09:09"},{"seq":15,"stop_id":"1128_10","name":"馬橋","lat":38.346226,"lon":140.796979,"time":"09:10"},{"seq":16,"stop_id":"1129_10","name":"根白石","lat":38.343883,"lon":140.797384,"time":"09:11"},{"seq":17,"stop_id":"1127_10","name":"根白石小学校前","lat":38.343334,"lon":140.798936,"time":"09:12"},{"seq":18,"stop_id":"1125_10","name":"根白石下町","lat":38.340414,"lon":140.80093,"time":"09:15"},{"seq":19,"stop_id":"1124_10","name":"根白石デイサービスセンター入口","lat":38.338258,"lon":140.801363,"time":"09:15"},{"seq":20,"stop_id":"1123_10","name":"判在家","lat":38.335891,"lon":140.802205,"time":"09:16"},{"seq":21,"stop_id":"1122_10","name":"福沢入口","lat":38.333517,"lon":140.802307,"time":"09:16"},{"seq":22,"stop_id":"1121_10","name":"窪","lat":38.328469,"lon":140.806169,"time":"09:17"},{"seq":23,"stop_id":"1119_10","name":"鼻毛橋","lat":38.329181,"lon":140.812616,"time":"09:19"},{"seq":24,"stop_id":"1117_10","name":"小角","lat":38.329146,"lon":140.815423,"time":"09:19"},{"seq":25,"stop_id":"1115_10","name":"実沢","lat":38.328442,"lon":140.82027,"time":"09:20"},{"seq":26,"stop_id":"1113_10","name":"八沢川","lat":38.328021,"lon":140.835014,"time":"09:22"},{"seq":27,"stop_id":"1111_10","name":"泉パークタウン入口","lat":38.328991,"lon":140.84288,"time":"09:24"},{"seq":28,"stop_id":"1109_10","name":"上野前","lat":38.327154,"lon":140.84987,"time":"09:25"},{"seq":29,"stop_id":"1107_10","name":"野村","lat":38.325595,"lon":140.862604,"time":"09:27"},{"seq":30,"stop_id":"1103_10","name":"泉総合運動場・社会福祉センター前","lat":38.326381,"lon":140.869631,"time":"09:28"},{"seq":31,"stop_id":"1099_10","name":"朴木沢","lat":38.325491,"lon":140.875202,"time":"09:29"},{"seq":32,"stop_id":"1095_10","name":"菅間","lat":38.325142,"lon":140.878299,"time":"09:30"},{"seq":33,"stop_id":"1093_10","name":"泉中央駅北口","lat":38.324145,"lon":140.880551,"time":"09:32"},{"seq":34,"stop_id":"1085_0","name":"泉中央駅","lat":38.322924,"lon":140.88101,"time":"09:33"}],"trip_counts":{"weekday":0,"saturday":5,"holiday":5}},{"pattern_id":"10004-1","direction_id":"0","headsign":"泉中央駅","shape_id":"","trip_count":14,"sample_trip_id":"50_1_15000480","stop_count":33,"shape_point_count":33,"shape":[[38.390061,140.720109],[38.381241,140.727547],[38.379029,140.74029],[38.374955,140.747483],[38.373085,140.760508],[38.370834,140.767394],[38.366774,140.772892],[38.363956,140.776538],[38.358789,140.780989],[38.355516,140.78388],[38.354917,140.786141],[38.350977,140.793959],[38.34756,140.7954],[38.346226,140.796979],[38.343883,140.797384],[38.343334,140.798936],[38.340414,140.80093],[38.338258,140.801363],[38.335891,140.802205],[38.333517,140.802307],[38.328469,140.806169],[38.329181,140.812616],[38.329146,140.815423],[38.328442,140.82027],[38.328021,140.835014],[38.328991,140.84288],[38.327154,140.84987],[38.325595,140.862604],[38.326381,140.869631],[38.325491,140.875202],[38.325142,140.878299],[38.324145,140.880551],[38.322924,140.88101]],"stops":[{"seq":1,"stop_id":"1155_10","name":"泉岳自然ふれあい館","lat":38.390061,"lon":140.720109,"time":"08:30"},{"seq":2,"stop_id":"1153_10","name":"芳の平","lat":38.381241,"lon":140.727547,"time":"08:32"},{"seq":3,"stop_id":"1151_10","name":"笈坂","lat":38.379029,"lon":140.74029,"time":"08:34"},{"seq":4,"stop_id":"1149_10","name":"笈坂東","lat":38.374955,"lon":140.747483,"time":"08:36"},{"seq":5,"stop_id":"1147_10","name":"金森橋","lat":38.373085,"lon":140.760508,"time":"08:40"},{"seq":6,"stop_id":"1145_10","name":"旗枠","lat":38.370834,"lon":140.767394,"time":"08:41"},{"seq":7,"stop_id":"1143_10","name":"七北田ダム入口","lat":38.366774,"lon":140.772892,"time":"08:42"},{"seq":8,"stop_id":"1141_10","name":"南切立","lat":38.363956,"lon":140.776538,"time":"08:43"},{"seq":9,"stop_id":"1139_10","name":"川崎上","lat":38.358789,"lon":140.780989,"time":"08:44"},{"seq":10,"stop_id":"1137_10","name":"泉川崎","lat":38.355516,"lon":140.78388,"time":"08:45"},{"seq":11,"stop_id":"1135_10","name":"川崎入口","lat":38.354917,"lon":140.786141,"time":"08:45"},{"seq":12,"stop_id":"1133_10","name":"川向","lat":38.350977,"lon":140.793959,"time":"08:47"},{"seq":13,"stop_id":"1132_10","name":"宝積寺前","lat":38.34756,"lon":140.7954,"time":"08:48"},{"seq":14,"stop_id":"1128_10","name":"馬橋","lat":38.346226,"lon":140.796979,"time":"08:49"},{"seq":15,"stop_id":"1129_10","name":"根白石","lat":38.343883,"lon":140.797384,"time":"08:50"},{"seq":16,"stop_id":"1127_10","name":"根白石小学校前","lat":38.343334,"lon":140.798936,"time":"08:50"},{"seq":17,"stop_id":"1125_10","name":"根白石下町","lat":38.340414,"lon":140.80093,"time":"08:52"},{"seq":18,"stop_id":"1124_10","name":"根白石デイサービスセンター入口","lat":38.338258,"lon":140.801363,"time":"08:52"},{"seq":19,"stop_id":"1123_10","name":"判在家","lat":38.335891,"lon":140.802205,"time":"08:53"},{"seq":20,"stop_id":"1122_10","name":"福沢入口","lat":38.333517,"lon":140.802307,"time":"08:53"},{"seq":21,"stop_id":"1121_10","name":"窪","lat":38.328469,"lon":140.806169,"time":"08:55"},{"seq":22,"stop_id":"1119_10","name":"鼻毛橋","lat":38.329181,"lon":140.812616,"time":"08:57"},{"seq":23,"stop_id":"1117_10","name":"小角","lat":38.329146,"lon":140.815423,"time":"08:58"},{"seq":24,"stop_id":"1115_10","name":"実沢","lat":38.328442,"lon":140.82027,"time":"09:00"},{"seq":25,"stop_id":"1113_10","name":"八沢川","lat":38.328021,"lon":140.835014,"time":"09:02"},{"seq":26,"stop_id":"1111_10","name":"泉パークタウン入口","lat":38.328991,"lon":140.84288,"time":"09:04"},{"seq":27,"stop_id":"1109_10","name":"上野前","lat":38.327154,"lon":140.84987,"time":"09:05"},{"seq":28,"stop_id":"1107_10","name":"野村","lat":38.325595,"lon":140.862604,"time":"09:07"},{"seq":29,"stop_id":"1103_10","name":"泉総合運動場・社会福祉センター前","lat":38.326381,"lon":140.869631,"time":"09:08"},{"seq":30,"stop_id":"1099_10","name":"朴木沢","lat":38.325491,"lon":140.875202,"time":"09:09"},{"seq":31,"stop_id":"1095_10","name":"菅間","lat":38.325142,"lon":140.878299,"time":"09:10"},{"seq":32,"stop_id":"1093_10","name":"泉中央駅北口","lat":38.324145,"lon":140.880551,"time":"09:12"},{"seq":33,"stop_id":"1085_0","name":"泉中央駅","lat":38.322924,"lon":140.88101,"time":"09:13"}],"trip_counts":{"weekday":4,"saturday":5,"holiday":5}},{"pattern_id":"10004-2","direction_id":"1","headsign":"泉岳自然ふれあい館","shape_id":"","trip_count":12,"sample_trip_id":"50_1_15000460","stop_count":33,"shape_point_count":33,"shape":[[38.322804,140.881418],[38.325242,140.881579],[38.325087,140.878404],[38.32538,140.875289],[38.326344,140.868513],[38.325479,140.862328],[38.327079,140.849855],[38.328858,140.843085],[38.328049,140.83461],[38.328289,140.820679],[38.329036,140.816313],[38.329112,140.812636],[38.328134,140.806555],[38.333517,140.802307],[38.336028,140.802082],[38.338258,140.801363],[38.34041,140.800829],[38.343319,140.798746],[38.343815,140.797312],[38.346184,140.79685],[38.34756,140.7954],[38.350977,140.793959],[38.354917,140.786141],[38.3554,140.783956],[38.357835,140.781543],[38.363956,140.776538],[38.366774,140.772892],[38.370834,140.767394],[38.373085,140.760508],[38.374955,140.747483],[38.379029,140.74029],[38.381241,140.727547],[38.390061,140.720109]],"stops":[{"seq":1,"stop_id":"1085_12","name":"泉中央駅","lat":38.322804,"lon":140.881418,"time":"07:15"},{"seq":2,"stop_id":"1091_50","name":"泉区役所・イズミティ２１前","lat":38.325242,"lon":140.881579,"time":"07:17"},{"seq":3,"stop_id":"1095_50","name":"菅間","lat":38.325087,"lon":140.878404,"time":"07:18"},{"seq":4,"stop_id":"1099_50","name":"朴木沢","lat":38.32538,"lon":140.875289,"time":"07:19"},{"seq":5,"stop_id":"1103_50","name":"泉総合運動場・社会福祉センター前","lat":38.326344,"lon":140.868513,"time":"07:21"},{"seq":6,"stop_id":"1107_50","name":"野村","lat":38.325479,"lon":140.862328,"time":"07:23"},{"seq":7,"stop_id":"1109_50","name":"上野前","lat":38.327079,"lon":140.849855,"time":"07:25"},{"seq":8,"stop_id":"1111_50","name":"泉パークタウン入口","lat":38.328858,"lon":140.843085,"time":"07:27"},{"seq":9,"stop_id":"1113_50","name":"八沢川","lat":38.328049,"lon":140.83461,"time":"07:29"},{"seq":10,"stop_id":"1115_50","name":"実沢","lat":38.328289,"lon":140.820679,"time":"07:31"},{"seq":11,"stop_id":"1117_50","name":"小角","lat":38.329036,"lon":140.816313,"time":"07:32"},{"seq":12,"stop_id":"1119_50","name":"鼻毛橋","lat":38.329112,"lon":140.812636,"time":"07:33"},{"seq":13,"stop_id":"1121_50","name":"窪","lat":38.328134,"lon":140.806555,"time":"07:34"},{"seq":14,"stop_id":"1122_10","name":"福沢入口","lat":38.333517,"lon":140.802307,"time":"07:35"},{"seq":15,"stop_id":"1123_50","name":"判在家","lat":38.336028,"lon":140.802082,"time":"07:36"},{"seq":16,"stop_id":"1124_10","name":"根白石デイサービスセンター入口","lat":38.338258,"lon":140.801363,"time":"07:36"},{"seq":17,"stop_id":"1125_50","name":"根白石下町","lat":38.34041,"lon":140.800829,"time":"07:38"},{"seq":18,"stop_id":"1127_50","name":"根白石小学校前","lat":38.343319,"lon":140.798746,"time":"07:38"},{"seq":19,"stop_id":"1129_50","name":"根白石","lat":38.343815,"lon":140.797312,"time":"07:39"},{"seq":20,"stop_id":"1128_50","name":"馬橋","lat":38.346184,"lon":140.79685,"time":"07:40"},{"seq":21,"stop_id":"1132_10","name":"宝積寺前","lat":38.34756,"lon":140.7954,"time":"07:40"},{"seq":22,"stop_id":"1133_10","name":"川向","lat":38.350977,"lon":140.793959,"time":"07:41"},{"seq":23,"stop_id":"1135_10","name":"川崎入口","lat":38.354917,"lon":140.786141,"time":"07:43"},{"seq":24,"stop_id":"1137_50","name":"泉川崎","lat":38.3554,"lon":140.783956,"time":"07:43"},{"seq":25,"stop_id":"1139_50","name":"川崎上","lat":38.357835,"lon":140.781543,"time":"07:44"},{"seq":26,"stop_id":"1141_10","name":"南切立","lat":38.363956,"lon":140.776538,"time":"07:45"},{"seq":27,"stop_id":"1143_10","name":"七北田ダム入口","lat":38.366774,"lon":140.772892,"time":"07:46"},{"seq":28,"stop_id":"1145_10","name":"旗枠","lat":38.370834,"lon":140.767394,"time":"07:47"},{"seq":29,"stop_id":"1147_10","name":"金森橋","lat":38.373085,"lon":140.760508,"time":"07:48"},{"seq":30,"stop_id":"1149_10","name":"笈坂東","lat":38.374955,"lon":140.747483,"time":"07:50"},{"seq":31,"stop_id":"1151_10","name":"笈坂","lat":38.379029,"lon":140.74029,"time":"07:51"},{"seq":32,"stop_id":"1153_10","name":"芳の平","lat":38.381241,"lon":140.727547,"time":"07:53"},{"seq":33,"stop_id":"1155_0","name":"泉岳自然ふれあい館","lat":38.390061,"lon":140.720109,"time":"07:55"}],"trip_counts":{"weekday":4,"saturday":4,"holiday":4}},{"pattern_id":"10004-4","direction_id":"1","headsign":"スプリングバレー仙台泉スキー場","shape_id":"","trip_count":8,"sample_trip_id":"50_2_25003810","stop_count":34,"shape_point_count":34,"shape":[[38.322804,140.881418],[38.325242,140.881579],[38.325087,140.878404],[38.32538,140.875289],[38.326344,140.868513],[38.325479,140.862328],[38.327079,140.849855],[38.328858,140.843085],[38.328049,140.83461],[38.328289,140.820679],[38.329036,140.816313],[38.329112,140.812636],[38.328134,140.806555],[38.333517,140.802307],[38.336028,140.802082],[38.338258,140.801363],[38.34041,140.800829],[38.343319,140.798746],[38.343815,140.797312],[38.346184,140.79685],[38.34756,140.7954],[38.350977,140.793959],[38.354917,140.786141],[38.3554,140.783956],[38.357835,140.781543],[38.363956,140.776538],[38.366774,140.772892],[38.370834,140.767394],[38.373085,140.760508],[38.374955,140.747483],[38.379029,140.74029],[38.381241,140.727547],[38.390061,140.720109],[38.418934,140.72319]],"stops":[{"seq":1,"stop_id":"1085_12","name":"泉中央駅","lat":38.322804,"lon":140.881418,"time":"07:15"},{"seq":2,"stop_id":"1091_50","name":"泉区役所・イズミティ２１前","lat":38.325242,"lon":140.881579,"time":"07:17"},{"seq":3,"stop_id":"1095_50","name":"菅間","lat":38.325087,"lon":140.878404,"time":"07:18"},{"seq":4,"stop_id":"1099_50","name":"朴木沢","lat":38.32538,"lon":140.875289,"time":"07:19"},{"seq":5,"stop_id":"1103_50","name":"泉総合運動場・社会福祉センター前","lat":38.326344,"lon":140.868513,"time":"07:21"},{"seq":6,"stop_id":"1107_50","name":"野村","lat":38.325479,"lon":140.862328,"time":"07:22"},{"seq":7,"stop_id":"1109_50","name":"上野前","lat":38.327079,"lon":140.849855,"time":"07:23"},{"seq":8,"stop_id":"1111_50","name":"泉パークタウン入口","lat":38.328858,"lon":140.843085,"time":"07:25"},{"seq":9,"stop_id":"1113_50","name":"八沢川","lat":38.328049,"lon":140.83461,"time":"07:26"},{"seq":10,"stop_id":"1115_50","name":"実沢","lat":38.328289,"lon":140.820679,"time":"07:28"},{"seq":11,"stop_id":"1117_50","name":"小角","lat":38.329036,"lon":140.816313,"time":"07:29"},{"seq":12,"stop_id":"1119_50","name":"鼻毛橋","lat":38.329112,"lon":140.812636,"time":"07:30"},{"seq":13,"stop_id":"1121_50","name":"窪","lat":38.328134,"lon":140.806555,"time":"07:31"},{"seq":14,"stop_id":"1122_10","name":"福沢入口","lat":38.333517,"lon":140.802307,"time":"07:33"},{"seq":15,"stop_id":"1123_50","name":"判在家","lat":38.336028,"lon":140.802082,"time":"07:34"},{"seq":16,"stop_id":"1124_10","name":"根白石デイサービスセンター入口","lat":38.338258,"lon":140.801363,"time":"07:34"},{"seq":17,"stop_id":"1125_50","name":"根白石下町","lat":38.34041,"lon":140.800829,"time":"07:36"},{"seq":18,"stop_id":"1127_50","name":"根白石小学校前","lat":38.343319,"lon":140.798746,"time":"07:36"},{"seq":19,"stop_id":"1129_50","name":"根白石","lat":38.343815,"lon":140.797312,"time":"07:37"},{"seq":20,"stop_id":"1128_50","name":"馬橋","lat":38.346184,"lon":140.79685,"time":"07:38"},{"seq":21,"stop_id":"1132_10","name":"宝積寺前","lat":38.34756,"lon":140.7954,"time":"07:38"},{"seq":22,"stop_id":"1133_10","name":"川向","lat":38.350977,"lon":140.793959,"time":"07:39"},{"seq":23,"stop_id":"1135_10","name":"川崎入口","lat":38.354917,"lon":140.786141,"time":"07:41"},{"seq":24,"stop_id":"1137_50","name":"泉川崎","lat":38.3554,"lon":140.783956,"time":"07:41"},{"seq":25,"stop_id":"1139_50","name":"川崎上","lat":38.357835,"lon":140.781543,"time":"07:42"},{"seq":26,"stop_id":"1141_10","name":"南切立","lat":38.363956,"lon":140.776538,"time":"07:43"},{"seq":27,"stop_id":"1143_10","name":"七北田ダム入口","lat":38.366774,"lon":140.772892,"time":"07:44"},{"seq":28,"stop_id":"1145_10","name":"旗枠","lat":38.370834,"lon":140.767394,"time":"07:45"},{"seq":29,"stop_id":"1147_10","name":"金森橋","lat":38.373085,"lon":140.760508,"time":"07:46"},{"seq":30,"stop_id":"1149_10","name":"笈坂東","lat":38.374955,"lon":140.747483,"time":"07:48"},{"seq":31,"stop_id":"1151_10","name":"笈坂","lat":38.379029,"lon":140.74029,"time":"07:49"},{"seq":32,"stop_id":"1153_10","name":"芳の平","lat":38.381241,"lon":140.727547,"time":"07:51"},{"seq":33,"stop_id":"1155_10","name":"泉岳自然ふれあい館","lat":38.390061,"lon":140.720109,"time":"07:53"},{"seq":34,"stop_id":"1160_0","name":"スプリングバレー仙台泉スキー場","lat":38.418934,"lon":140.72319,"time":"08:03"}],"trip_counts":{"weekday":0,"saturday":4,"holiday":4}}],"pattern_count":4},{"route_id":"10005","short_name":"10","full_short_name":"10","long_name":"","color":"#A3D742","text_color":"#050505","patterns":[{"pattern_id":"10005-1","direction_id":"0","headsign":"薬師堂駅","shape_id":"","trip_count":4,"sample_trip_id":"20_1_12000430","stop_count":20,"shape_point_count":20,"shape":[[38.244771,140.94857],[38.242129,140.946044],[38.245918,140.945522],[38.249393,140.945679],[38.25343,140.945862],[38.258011,140.946162],[38.260529,140.946311],[38.260977,140.942618],[38.260977,140.939957],[38.260963,140.934784],[38.261013,140.928569],[38.261011,140.924771],[38.261022,140.919733],[38.261028,140.916969],[38.26128,140.91388],[38.258648,140.912219],[38.255469,140.911625],[38.252587,140.911064],[38.249408,140.906904],[38.249917,140.905041]],"stops":[{"seq":1,"stop_id":"5181_10","name":"荒井駅","lat":38.244771,"lon":140.94857,"time":"06:58"},{"seq":2,"stop_id":"5183_10","name":"荒井六丁目","lat":38.242129,"lon":140.946044,"time":"06:59"},{"seq":3,"stop_id":"5185_10","name":"荒井五丁目","lat":38.245918,"lon":140.945522,"time":"07:00"},{"seq":4,"stop_id":"4029_10","name":"六丁の目南町","lat":38.249393,"lon":140.945679,"time":"07:01"},{"seq":5,"stop_id":"5187_10","name":"卸町東四丁目","lat":38.25343,"lon":140.945862,"time":"07:02"},{"seq":6,"stop_id":"4217_11","name":"若林体育館前","lat":38.258011,"lon":140.946162,"time":"07:03"},{"seq":7,"stop_id":"5189_10","name":"宮城県印刷会館前","lat":38.260529,"lon":140.946311,"time":"07:04"},{"seq":8,"stop_id":"4121_10","name":"自動車団地","lat":38.260977,"lon":140.942618,"time":"07:05"},{"seq":9,"stop_id":"4119_10","name":"自動車団地入口","lat":38.260977,"lon":140.939957,"time":"07:06"},{"seq":10,"stop_id":"4117_10","name":"日の出町三丁目","lat":38.260963,"lon":140.934784,"time":"07:10"},{"seq":11,"stop_id":"4115_10","name":"卸町四丁目北","lat":38.261013,"lon":140.928569,"time":"07:11"},{"seq":12,"stop_id":"4109_10","name":"トラックターミナル・中税務署入口","lat":38.261011,"lon":140.924771,"time":"07:12"},{"seq":13,"stop_id":"4107_10","name":"陸上自衛隊仙台駐屯地前","lat":38.261022,"lon":140.919733,"time":"07:13"},{"seq":14,"stop_id":"4106_10","name":"宮城野小仙台工業高前","lat":38.261028,"lon":140.916969,"time":"07:13"},{"seq":15,"stop_id":"4105_10","name":"銀杏町","lat":38.26128,"lon":140.91388,"time":"07:15"},{"seq":16,"stop_id":"4103_10","name":"萩野町一丁目","lat":38.258648,"lon":140.912219,"time":"07:16"},{"seq":17,"stop_id":"4101_10","name":"宮千代一丁目","lat":38.255469,"lon":140.911625,"time":"07:17"},{"seq":18,"stop_id":"4015_111","name":"志波町","lat":38.252587,"lon":140.911064,"time":"07:18"},{"seq":19,"stop_id":"5013_10","name":"大和町一丁目","lat":38.249408,"lon":140.906904,"time":"07:19"},{"seq":20,"stop_id":"5031_0","name":"薬師堂駅","lat":38.249917,"lon":140.905041,"time":"07:21"}],"trip_counts":{"weekday":4,"saturday":0,"holiday":0}},{"pattern_id":"10005-2","direction_id":"1","headsign":"荒井駅","shape_id":"","trip_count":2,"sample_trip_id":"20_1_12006080","stop_count":20,"shape_point_count":20,"shape":[[38.249938,140.904836],[38.249386,140.908143],[38.252214,140.910798],[38.255364,140.911383],[38.258882,140.912032],[38.261493,140.913515],[38.26124,140.916304],[38.261203,140.919442],[38.261178,140.924845],[38.261323,140.930977],[38.261305,140.934608],[38.261295,140.939406],[38.261291,140.9421],[38.260379,140.946491],[38.258016,140.946377],[38.25368,140.946112],[38.249891,140.945933],[38.245824,140.945697],[38.242218,140.946241],[38.244673,140.947914]],"stops":[{"seq":1,"stop_id":"5031_10","name":"薬師堂駅","lat":38.249938,"lon":140.904836,"time":"08:00"},{"seq":2,"stop_id":"5013_50","name":"大和町一丁目","lat":38.249386,"lon":140.908143,"time":"08:02"},{"seq":3,"stop_id":"4015_151","name":"志波町","lat":38.252214,"lon":140.910798,"time":"08:04"},{"seq":4,"stop_id":"4101_50","name":"宮千代一丁目","lat":38.255364,"lon":140.911383,"time":"08:05"},{"seq":5,"stop_id":"4103_50","name":"萩野町一丁目","lat":38.258882,"lon":140.912032,"time":"08:07"},{"seq":6,"stop_id":"4105_50","name":"銀杏町","lat":38.261493,"lon":140.913515,"time":"08:09"},{"seq":7,"stop_id":"4106_50","name":"宮城野小仙台工業高前","lat":38.26124,"lon":140.916304,"time":"08:10"},{"seq":8,"stop_id":"4107_50","name":"陸上自衛隊仙台駐屯地前","lat":38.261203,"lon":140.919442,"time":"08:11"},{"seq":9,"stop_id":"4109_50","name":"トラックターミナル・中税務署入口","lat":38.261178,"lon":140.924845,"time":"08:13"},{"seq":10,"stop_id":"4115_50","name":"卸町四丁目北","lat":38.261323,"lon":140.930977,"time":"08:14"},{"seq":11,"stop_id":"4117_50","name":"日の出町三丁目","lat":38.261305,"lon":140.934608,"time":"08:15"},{"seq":12,"stop_id":"4119_50","name":"自動車団地入口","lat":38.261295,"lon":140.939406,"time":"08:17"},{"seq":13,"stop_id":"4121_50","name":"自動車団地","lat":38.261291,"lon":140.9421,"time":"08:18"},{"seq":14,"stop_id":"5189_50","name":"宮城県印刷会館前","lat":38.260379,"lon":140.946491,"time":"08:21"},{"seq":15,"stop_id":"4217_51","name":"若林体育館前","lat":38.258016,"lon":140.946377,"time":"08:22"},{"seq":16,"stop_id":"5187_50","name":"卸町東四丁目","lat":38.25368,"lon":140.946112,"time":"08:23"},{"seq":17,"stop_id":"4029_50","name":"六丁の目南町","lat":38.249891,"lon":140.945933,"time":"08:24"},{"seq":18,"stop_id":"5185_50","name":"荒井五丁目","lat":38.245824,"lon":140.945697,"time":"08:25"},{"seq":19,"stop_id":"5183_50","name":"荒井六丁目","lat":38.242218,"lon":140.946241,"time":"08:26"},{"seq":20,"stop_id":"5181_0","name":"荒井駅","lat":38.244673,"lon":140.947914,"time":"08:28"}],"trip_counts":{"weekday":2,"saturday":0,"holiday":0}}],"pattern_count":2},{"route_id":"10006","short_name":"11","full_short_name":"11","long_name":"","color":"#A3D742","text_color":"#050505","patterns":[{"pattern_id":"10006-2","direction_id":"1","headsign":"旗枠・杉の崎公会堂","shape_id":"","trip_count":16,"sample_trip_id":"50_1_15000440","stop_count":32,"shape_point_count":32,"shape":[[38.322804,140.881418],[38.325242,140.881579],[38.325087,140.878404],[38.32538,140.875289],[38.326344,140.868513],[38.325479,140.862328],[38.327079,140.849855],[38.328858,140.843085],[38.328049,140.83461],[38.328289,140.820679],[38.329036,140.816313],[38.329112,140.812636],[38.328134,140.806555],[38.333517,140.802307],[38.336028,140.802082],[38.338258,140.801363],[38.34041,140.800829],[38.343319,140.798746],[38.343815,140.797312],[38.346184,140.79685],[38.34756,140.7954],[38.350977,140.793959],[38.354917,140.786141],[38.3554,140.783956],[38.357835,140.781543],[38.363956,140.776538],[38.366774,140.772892],[38.370834,140.767394],[38.373085,140.760508],[38.371354,140.760761],[38.367117,140.758158],[38.364651,140.755868]],"stops":[{"seq":1,"stop_id":"1085_12","name":"泉中央駅","lat":38.322804,"lon":140.881418,"time":"06:40"},{"seq":2,"stop_id":"1091_50","name":"泉区役所・イズミティ２１前","lat":38.325242,"lon":140.881579,"time":"06:42"},{"seq":3,"stop_id":"1095_50","name":"菅間","lat":38.325087,"lon":140.878404,"time":"06:43"},{"seq":4,"stop_id":"1099_50","name":"朴木沢","lat":38.32538,"lon":140.875289,"time":"06:44"},{"seq":5,"stop_id":"1103_50","name":"泉総合運動場・社会福祉センター前","lat":38.326344,"lon":140.868513,"time":"06:46"},{"seq":6,"stop_id":"1107_50","name":"野村","lat":38.325479,"lon":140.862328,"time":"06:47"},{"seq":7,"stop_id":"1109_50","name":"上野前","lat":38.327079,"lon":140.849855,"time":"06:48"},{"seq":8,"stop_id":"1111_50","name":"泉パークタウン入口","lat":38.328858,"lon":140.843085,"time":"06:50"},{"seq":9,"stop_id":"1113_50","name":"八沢川","lat":38.328049,"lon":140.83461,"time":"06:51"},{"seq":10,"stop_id":"1115_50","name":"実沢","lat":38.328289,"lon":140.820679,"time":"06:53"},{"seq":11,"stop_id":"1117_50","name":"小角","lat":38.329036,"lon":140.816313,"time":"06:54"},{"seq":12,"stop_id":"1119_50","name":"鼻毛橋","lat":38.329112,"lon":140.812636,"time":"06:55"},{"seq":13,"stop_id":"1121_50","name":"窪","lat":38.328134,"lon":140.806555,"time":"06:56"},{"seq":14,"stop_id":"1122_10","name":"福沢入口","lat":38.333517,"lon":140.802307,"time":"06:57"},{"seq":15,"stop_id":"1123_50","name":"判在家","lat":38.336028,"lon":140.802082,"time":"06:58"},{"seq":16,"stop_id":"1124_10","name":"根白石デイサービスセンター入口","lat":38.338258,"lon":140.801363,"time":"06:58"},{"seq":17,"stop_id":"1125_50","name":"根白石下町","lat":38.34041,"lon":140.800829,"time":"07:00"},{"seq":18,"stop_id":"1127_50","name":"根白石小学校前","lat":38.343319,"lon":140.798746,"time":"07:00"},{"seq":19,"stop_id":"1129_50","name":"根白石","lat":38.343815,"lon":140.797312,"time":"07:01"},{"seq":20,"stop_id":"1128_50","name":"馬橋","lat":38.346184,"lon":140.79685,"time":"07:02"},{"seq":21,"stop_id":"1132_10","name":"宝積寺前","lat":38.34756,"lon":140.7954,"time":"07:02"},{"seq":22,"stop_id":"1133_10","name":"川向","lat":38.350977,"lon":140.793959,"time":"07:03"},{"seq":23,"stop_id":"1135_10","name":"川崎入口","lat":38.354917,"lon":140.786141,"time":"07:05"},{"seq":24,"stop_id":"1137_50","name":"泉川崎","lat":38.3554,"lon":140.783956,"time":"07:05"},{"seq":25,"stop_id":"1139_50","name":"川崎上","lat":38.357835,"lon":140.781543,"time":"07:06"},{"seq":26,"stop_id":"1141_10","name":"南切立","lat":38.363956,"lon":140.776538,"time":"07:07"},{"seq":27,"stop_id":"1143_10","name":"七北田ダム入口","lat":38.366774,"lon":140.772892,"time":"07:08"},{"seq":28,"stop_id":"1145_10","name":"旗枠","lat":38.370834,"lon":140.767394,"time":"07:09"},{"seq":29,"stop_id":"1147_10","name":"金森橋","lat":38.373085,"lon":140.760508,"time":"07:10"},{"seq":30,"stop_id":"1841_10","name":"下鼬原","lat":38.371354,"lon":140.760761,"time":"07:11"},{"seq":31,"stop_id":"1843_10","name":"下荒沢","lat":38.367117,"lon":140.758158,"time":"07:12"},{"seq":32,"stop_id":"1845_0","name":"杉の崎公会堂前","lat":38.364651,"lon":140.755868,"time":"07:13"}],"trip_counts":{"weekday":4,"saturday":6,"holiday":6}},{"pattern_id":"10006-1","direction_id":"0","headsign":"泉中央駅","shape_id":"","trip_count":6,"sample_trip_id":"50_1_15000580","stop_count":32,"shape_point_count":32,"shape":[[38.364614,140.75587],[38.367117,140.758158],[38.371354,140.760761],[38.373085,140.760508],[38.370834,140.767394],[38.366774,140.772892],[38.363956,140.776538],[38.358789,140.780989],[38.355516,140.78388],[38.354917,140.786141],[38.350977,140.793959],[38.34756,140.7954],[38.346226,140.796979],[38.343883,140.797384],[38.343334,140.798936],[38.340414,140.80093],[38.338258,140.801363],[38.335891,140.802205],[38.333517,140.802307],[38.328469,140.806169],[38.329181,140.812616],[38.329146,140.815423],[38.328442,140.82027],[38.328021,140.835014],[38.328991,140.84288],[38.327154,140.84987],[38.325595,140.862604],[38.326381,140.869631],[38.325491,140.875202],[38.325142,140.878299],[38.324145,140.880551],[38.322924,140.88101]],"stops":[{"seq":1,"stop_id":"1845_10","name":"杉の崎公会堂前","lat":38.364614,"lon":140.75587,"time":"16:08"},{"seq":2,"stop_id":"1843_10","name":"下荒沢","lat":38.367117,"lon":140.758158,"time":"16:09"},{"seq":3,"stop_id":"1841_10","name":"下鼬原","lat":38.371354,"lon":140.760761,"time":"16:09"},{"seq":4,"stop_id":"1147_10","name":"金森橋","lat":38.373085,"lon":140.760508,"time":"16:10"},{"seq":5,"stop_id":"1145_10","name":"旗枠","lat":38.370834,"lon":140.767394,"time":"16:11"},{"seq":6,"stop_id":"1143_10","name":"七北田ダム入口","lat":38.366774,"lon":140.772892,"time":"16:12"},{"seq":7,"stop_id":"1141_10","name":"南切立","lat":38.363956,"lon":140.776538,"time":"16:13"},{"seq":8,"stop_id":"1139_10","name":"川崎上","lat":38.358789,"lon":140.780989,"time":"16:14"},{"seq":9,"stop_id":"1137_10","name":"泉川崎","lat":38.355516,"lon":140.78388,"time":"16:15"},{"seq":10,"stop_id":"1135_10","name":"川崎入口","lat":38.354917,"lon":140.786141,"time":"16:15"},{"seq":11,"stop_id":"1133_10","name":"川向","lat":38.350977,"lon":140.793959,"time":"16:17"},{"seq":12,"stop_id":"1132_10","name":"宝積寺前","lat":38.34756,"lon":140.7954,"time":"16:18"},{"seq":13,"stop_id":"1128_10","name":"馬橋","lat":38.346226,"lon":140.796979,"time":"16:19"},{"seq":14,"stop_id":"1129_10","name":"根白石","lat":38.343883,"lon":140.797384,"time":"16:20"},{"seq":15,"stop_id":"1127_10","name":"根白石小学校前","lat":38.343334,"lon":140.798936,"time":"16:20"},{"seq":16,"stop_id":"1125_10","name":"根白石下町","lat":38.340414,"lon":140.80093,"time":"16:22"},{"seq":17,"stop_id":"1124_10","name":"根白石デイサービスセンター入口","lat":38.338258,"lon":140.801363,"time":"16:22"},{"seq":18,"stop_id":"1123_10","name":"判在家","lat":38.335891,"lon":140.802205,"time":"16:23"},{"seq":19,"stop_id":"1122_10","name":"福沢入口","lat":38.333517,"lon":140.802307,"time":"16:23"},{"seq":20,"stop_id":"1121_10","name":"窪","lat":38.328469,"lon":140.806169,"time":"16:24"},{"seq":21,"stop_id":"1119_10","name":"鼻毛橋","lat":38.329181,"lon":140.812616,"time":"16:26"},{"seq":22,"stop_id":"1117_10","name":"小角","lat":38.329146,"lon":140.815423,"time":"16:26"},{"seq":23,"stop_id":"1115_10","name":"実沢","lat":38.328442,"lon":140.82027,"time":"16:27"},{"seq":24,"stop_id":"1113_10","name":"八沢川","lat":38.328021,"lon":140.835014,"time":"16:29"},{"seq":25,"stop_id":"1111_10","name":"泉パークタウン入口","lat":38.328991,"lon":140.84288,"time":"16:31"},{"seq":26,"stop_id":"1109_10","name":"上野前","lat":38.327154,"lon":140.84987,"time":"16:32"},{"seq":27,"stop_id":"1107_10","name":"野村","lat":38.325595,"lon":140.862604,"time":"16:34"},{"seq":28,"stop_id":"1103_10","name":"泉総合運動場・社会福祉センター前","lat":38.326381,"lon":140.869631,"time":"16:35"},{"seq":29,"stop_id":"1099_10","name":"朴木沢","lat":38.325491,"lon":140.875202,"time":"16:36"},{"seq":30,"stop_id":"1095_10","name":"菅間","lat":38.325142,"lon":140.878299,"time":"16:37"},{"seq":31,"stop_id":"1093_10","name":"泉中央駅北口","lat":38.324145,"lon":140.880551,"time":"16:39"},{"seq":32,"stop_id":"1085_0","name":"泉中央駅","lat":38.322924,"lon":140.88101,"time":"16:40"}],"trip_counts":{"weekday":2,"saturday":2,"holiday":2}}],"pattern_count":2},{"route_id":"10007","short_name":"110","full_short_name":"110","long_name":"","color":"#A3D742","text_color":"#050505","patterns":[{"pattern_id":"10007-1","direction_id":"1","headsign":"東仙台営業所","shape_id":"","trip_count":94,"sample_trip_id":"10_1_11002330","stop_count":26,"shape_point_count":26,"shape":[[38.259986,140.880506],[38.262058,140.873608],[38.264512,140.872235],[38.269275,140.86963],[38.271459,140.869032],[38.275043,140.870264],[38.27533,140.87225],[38.2759,140.876644],[38.276226,140.879553],[38.276472,140.88189],[38.276162,140.885791],[38.274447,140.889297],[38.273095,140.892699],[38.273083,140.894655],[38.273607,140.898924],[38.275842,140.898935],[38.277797,140.899828],[38.278215,140.902018],[38.278208,140.903504],[38.278408,140.906798],[38.278659,140.911236],[38.278731,140.913127],[38.278406,140.916301],[38.279655,140.919703],[38.280874,140.922354],[38.282844,140.924681]],"stops":[{"seq":1,"stop_id":"50_154","name":"仙台駅前","lat":38.259986,"lon":140.880506,"time":"09:26"},{"seq":2,"stop_id":"55_152","name":"電力ビル前","lat":38.262058,"lon":140.873608,"time":"09:30"},{"seq":3,"stop_id":"65_51","name":"商工会議所前","lat":38.264512,"lon":140.872235,"time":"09:31"},{"seq":4,"stop_id":"70_51","name":"県庁市役所前","lat":38.269275,"lon":140.86963,"time":"09:33"},{"seq":5,"stop_id":"91_50","name":"二日町北四番丁","lat":38.271459,"lon":140.869032,"time":"09:34"},{"seq":6,"stop_id":"2002_50","name":"厚生病院前","lat":38.275043,"lon":140.870264,"time":"09:37"},{"seq":7,"stop_id":"2003_50","name":"上杉二丁目","lat":38.27533,"lon":140.87225,"time":"09:38"},{"seq":8,"stop_id":"2005_50","name":"附属小学校前","lat":38.2759,"lon":140.876644,"time":"09:39"},{"seq":9,"stop_id":"2007_50","name":"視覚支援学校前","lat":38.276226,"lon":140.879553,"time":"09:40"},{"seq":10,"stop_id":"2009_50","name":"北六番丁小学校前","lat":38.276472,"lon":140.88189,"time":"09:41"},{"seq":11,"stop_id":"2011_50","name":"宮町五丁目","lat":38.276162,"lon":140.885791,"time":"09:43"},{"seq":12,"stop_id":"2013_50","name":"福沢市民センター前","lat":38.274447,"lon":140.889297,"time":"09:45"},{"seq":13,"stop_id":"2015_50","name":"中江公園前","lat":38.273095,"lon":140.892699,"time":"09:46"},{"seq":14,"stop_id":"2017_50","name":"中江一丁目","lat":38.273083,"lon":140.894655,"time":"09:47"},{"seq":15,"stop_id":"2019_51","name":"幸町二丁目","lat":38.273607,"lon":140.898924,"time":"09:48"},{"seq":16,"stop_id":"2220_50","name":"幸町小学校前","lat":38.275842,"lon":140.898935,"time":"09:49"},{"seq":17,"stop_id":"2221_50","name":"二の森","lat":38.277797,"lon":140.899828,"time":"09:50"},{"seq":18,"stop_id":"2222_50","name":"二の森東","lat":38.278215,"lon":140.902018,"time":"09:51"},{"seq":19,"stop_id":"2223_50","name":"青葉病院・幸町市民センター入口","lat":38.278208,"lon":140.903504,"time":"09:52"},{"seq":20,"stop_id":"2105_51","name":"保健環境センター・青年会館前","lat":38.278408,"lon":140.906798,"time":"09:54"},{"seq":21,"stop_id":"2225_50","name":"東仙台四丁目","lat":38.278659,"lon":140.911236,"time":"09:55"},{"seq":22,"stop_id":"2227_50","name":"東仙台小学校前","lat":38.278731,"lon":140.913127,"time":"09:55"},{"seq":23,"stop_id":"2035_51","name":"東仙台","lat":38.278406,"lon":140.916301,"time":"09:56"},{"seq":24,"stop_id":"2037_50","name":"燕沢住宅前","lat":38.279655,"lon":140.919703,"time":"09:57"},{"seq":25,"stop_id":"2039_50","name":"小鶴住宅入口","lat":38.280874,"lon":140.922354,"time":"09:58"},{"seq":26,"stop_id":"2041_0","name":"市営バス東仙台営業所前","lat":38.282844,"lon":140.924681,"time":"09:59"}],"trip_counts":{"weekday":33,"saturday":32,"holiday":29}}],"pattern_count":1},{"route_id":"10008","short_name":"115","full_short_name":"115","long_name":"","color":"#A3D742","text_color":"#050505","patterns":[{"pattern_id":"10008-1","direction_id":"0","headsign":"広瀬通一番町","shape_id":"","trip_count":2,"sample_trip_id":"10_1_11003820","stop_count":33,"shape_point_count":33,"shape":[[38.282782,140.924732],[38.280459,140.921941],[38.279492,140.919723],[38.278365,140.916151],[38.278631,140.913038],[38.27861,140.910817],[38.278304,140.906843],[38.278143,140.903808],[38.278059,140.901932],[38.27771,140.899408],[38.27609,140.899059],[38.273544,140.89903],[38.272895,140.895094],[38.27291,140.892811],[38.273927,140.889409],[38.274996,140.889046],[38.276069,140.886049],[38.276353,140.881953],[38.276036,140.878753],[38.275769,140.876593],[38.275217,140.872304],[38.274793,140.869319],[38.271894,140.867849],[38.271636,140.86626],[38.270728,140.860786],[38.270444,140.856418],[38.267378,140.855643],[38.265364,140.856324],[38.262976,140.856549],[38.262399,140.858381],[38.261214,140.864114],[38.261988,140.868429],[38.262478,140.871756]],"stops":[{"seq":1,"stop_id":"2041_10","name":"市営バス東仙台営業所前","lat":38.282782,"lon":140.924732,"time":"15:00"},{"seq":2,"stop_id":"2039_10","name":"小鶴住宅入口","lat":38.280459,"lon":140.921941,"time":"15:00"},{"seq":3,"stop_id":"2037_10","name":"燕沢住宅前","lat":38.279492,"lon":140.919723,"time":"15:01"},{"seq":4,"stop_id":"2035_11","name":"東仙台","lat":38.278365,"lon":140.916151,"time":"15:02"},{"seq":5,"stop_id":"2227_10","name":"東仙台小学校前","lat":38.278631,"lon":140.913038,"time":"15:03"},{"seq":6,"stop_id":"2225_10","name":"東仙台四丁目","lat":38.27861,"lon":140.910817,"time":"15:04"},{"seq":7,"stop_id":"2105_11","name":"保健環境センター・青年会館前","lat":38.278304,"lon":140.906843,"time":"15:05"},{"seq":8,"stop_id":"2223_10","name":"青葉病院・幸町市民センター入口","lat":38.278143,"lon":140.903808,"time":"15:06"},{"seq":9,"stop_id":"2222_10","name":"二の森東","lat":38.278059,"lon":140.901932,"time":"15:07"},{"seq":10,"stop_id":"2221_10","name":"二の森","lat":38.27771,"lon":140.899408,"time":"15:08"},{"seq":11,"stop_id":"2220_10","name":"幸町小学校前","lat":38.27609,"lon":140.899059,"time":"15:09"},{"seq":12,"stop_id":"2019_11","name":"幸町二丁目","lat":38.273544,"lon":140.89903,"time":"15:10"},{"seq":13,"stop_id":"2017_10","name":"中江一丁目","lat":38.272895,"lon":140.895094,"time":"15:12"},{"seq":14,"stop_id":"2015_10","name":"中江公園前","lat":38.27291,"lon":140.892811,"time":"15:13"},{"seq":15,"stop_id":"2014_10","name":"中江郵便局前","lat":38.273927,"lon":140.889409,"time":"15:14"},{"seq":16,"stop_id":"2013_10","name":"福沢市民センター前","lat":38.274996,"lon":140.889046,"time":"15:14"},{"seq":17,"stop_id":"2011_10","name":"宮町五丁目","lat":38.276069,"lon":140.886049,"time":"15:16"},{"seq":18,"stop_id":"2009_10","name":"北六番丁小学校前","lat":38.276353,"lon":140.881953,"time":"15:17"},{"seq":19,"stop_id":"2007_10","name":"視覚支援学校前","lat":38.276036,"lon":140.878753,"time":"15:18"},{"seq":20,"stop_id":"2005_10","name":"附属小学校前","lat":38.275769,"lon":140.876593,"time":"15:19"},{"seq":21,"stop_id":"2003_10","name":"上杉二丁目","lat":38.275217,"lon":140.872304,"time":"15:20"},{"seq":22,"stop_id":"2002_10","name":"厚生病院前","lat":38.274793,"lon":140.869319,"time":"15:22"},{"seq":23,"stop_id":"91_52","name":"二日町北四番丁","lat":38.271894,"lon":140.867849,"time":"15:24"},{"seq":24,"stop_id":"101_50","name":"木町通二丁目","lat":38.271636,"lon":140.86626,"time":"15:25"},{"seq":25,"stop_id":"105_50","name":"東北大学病院前","lat":38.270728,"lon":140.860786,"time":"15:28"},{"seq":26,"stop_id":"107_50","name":"広瀬町","lat":38.270444,"lon":140.856418,"time":"15:30"},{"seq":27,"stop_id":"237_11","name":"尚絅学院中学高校前","lat":38.267378,"lon":140.855643,"time":"15:32"},{"seq":28,"stop_id":"245_10","name":"澱橋通","lat":38.265364,"lon":140.856324,"time":"15:33"},{"seq":29,"stop_id":"217_10","name":"二高・宮城県美術館前","lat":38.262976,"lon":140.856549,"time":"15:34"},{"seq":30,"stop_id":"215_10","name":"仲の瀬橋","lat":38.262399,"lon":140.858381,"time":"15:35"},{"seq":31,"stop_id":"213_10","name":"立町小学校前","lat":38.261214,"lon":140.864114,"time":"15:37"},{"seq":32,"stop_id":"211_11","name":"東北公済病院戦災復興記念館前","lat":38.261988,"lon":140.868429,"time":"15:40"},{"seq":33,"stop_id":"200_0","name":"広瀬通一番町","lat":38.262478,"lon":140.871756,"time":"15:43"}],"trip_counts":{"weekday":2,"saturday":0,"holiday":0}},{"pattern_id":"10008-2","direction_id":"1","headsign":"東仙台営業所","shape_id":"","trip_count":2,"sample_trip_id":"10_1_11003920","stop_count":31,"shape_point_count":31,"shape":[[38.262324,140.87181],[38.261877,140.869332],[38.260988,140.864435],[38.262138,140.858413],[38.263693,140.855834],[38.265343,140.85618],[38.267504,140.85552],[38.270603,140.856663],[38.270897,140.860804],[38.272017,140.867296],[38.275043,140.870264],[38.27533,140.87225],[38.2759,140.876644],[38.276226,140.879553],[38.276472,140.88189],[38.276162,140.885791],[38.274447,140.889297],[38.273095,140.892699],[38.273083,140.894655],[38.273607,140.898924],[38.275842,140.898935],[38.277797,140.899828],[38.278215,140.902018],[38.278208,140.903504],[38.278408,140.906798],[38.278659,140.911236],[38.278731,140.913127],[38.278406,140.916301],[38.279655,140.919703],[38.280874,140.922354],[38.282844,140.924681]],"stops":[{"seq":1,"stop_id":"200_50","name":"広瀬通一番町","lat":38.262324,"lon":140.87181,"time":"16:13"},{"seq":2,"stop_id":"211_51","name":"東北公済病院戦災復興記念館前","lat":38.261877,"lon":140.869332,"time":"16:14"},{"seq":3,"stop_id":"213_50","name":"立町小学校前","lat":38.260988,"lon":140.864435,"time":"16:15"},{"seq":4,"stop_id":"215_50","name":"仲の瀬橋","lat":38.262138,"lon":140.858413,"time":"16:17"},{"seq":5,"stop_id":"217_52","name":"二高・宮城県美術館前","lat":38.263693,"lon":140.855834,"time":"16:18"},{"seq":6,"stop_id":"245_50","name":"澱橋通","lat":38.265343,"lon":140.85618,"time":"16:19"},{"seq":7,"stop_id":"237_10","name":"尚絅学院中学高校前","lat":38.267504,"lon":140.85552,"time":"16:21"},{"seq":8,"stop_id":"107_10","name":"広瀬町","lat":38.270603,"lon":140.856663,"time":"16:23"},{"seq":9,"stop_id":"105_10","name":"東北大学病院前","lat":38.270897,"lon":140.860804,"time":"16:25"},{"seq":10,"stop_id":"101_10","name":"木町通二丁目","lat":38.272017,"lon":140.867296,"time":"16:26"},{"seq":11,"stop_id":"2002_50","name":"厚生病院前","lat":38.275043,"lon":140.870264,"time":"16:30"},{"seq":12,"stop_id":"2003_50","name":"上杉二丁目","lat":38.27533,"lon":140.87225,"time":"16:31"},{"seq":13,"stop_id":"2005_50","name":"附属小学校前","lat":38.2759,"lon":140.876644,"time":"16:32"},{"seq":14,"stop_id":"2007_50","name":"視覚支援学校前","lat":38.276226,"lon":140.879553,"time":"16:33"},{"seq":15,"stop_id":"2009_50","name":"北六番丁小学校前","lat":38.276472,"lon":140.88189,"time":"16:34"},{"seq":16,"stop_id":"2011_50","name":"宮町五丁目","lat":38.276162,"lon":140.885791,"time":"16:36"},{"seq":17,"stop_id":"2013_50","name":"福沢市民センター前","lat":38.274447,"lon":140.889297,"time":"16:38"},{"seq":18,"stop_id":"2015_50","name":"中江公園前","lat":38.273095,"lon":140.892699,"time":"16:39"},{"seq":19,"stop_id":"2017_50","name":"中江一丁目","lat":38.273083,"lon":140.894655,"time":"16:40"},{"seq":20,"stop_id":"2019_51","name":"幸町二丁目","lat":38.273607,"lon":140.898924,"time":"16:43"},{"seq":21,"stop_id":"2220_50","name":"幸町小学校前","lat":38.275842,"lon":140.898935,"time":"16:44"},{"seq":22,"stop_id":"2221_50","name":"二の森","lat":38.277797,"lon":140.899828,"time":"16:45"},{"seq":23,"stop_id":"2222_50","name":"二の森東","lat":38.278215,"lon":140.902018,"time":"16:46"},{"seq":24,"stop_id":"2223_50","name":"青葉病院・幸町市民センター入口","lat":38.278208,"lon":140.903504,"time":"16:47"},{"seq":25,"stop_id":"2105_51","name":"保健環境センター・青年会館前","lat":38.278408,"lon":140.906798,"time":"16:49"},{"seq":26,"stop_id":"2225_50","name":"東仙台四丁目","lat":38.278659,"lon":140.911236,"time":"16:50"},{"seq":27,"stop_id":"2227_50","name":"東仙台小学校前","lat":38.278731,"lon":140.913127,"time":"16:50"},{"seq":28,"stop_id":"2035_51","name":"東仙台","lat":38.278406,"lon":140.916301,"time":"16:51"},{"seq":29,"stop_id":"2037_50","name":"燕沢住宅前","lat":38.279655,"lon":140.919703,"time":"16:52"},{"seq":30,"stop_id":"2039_50","name":"小鶴住宅入口","lat":38.280874,"lon":140.922354,"time":"16:53"},{"seq":31,"stop_id":"2041_0","name":"市営バス東仙台営業所前","lat":38.282844,"lon":140.924681,"time":"16:54"}],"trip_counts":{"weekday":2,"saturday":0,"holiday":0}}],"pattern_count":2},{"route_id":"10009","short_name":"12","full_short_name":"12","long_name":"","color":"#A3D742","text_color":"#050505","patterns":[{"pattern_id":"10009-1","direction_id":"0","headsign":"泉中央駅","shape_id":"","trip_count":14,"sample_trip_id":"50_1_15001700","stop_count":28,"shape_point_count":28,"shape":[[38.345458,140.783147],[38.345263,140.774534],[38.349634,140.777084],[38.35333,140.781155],[38.353041,140.783337],[38.350257,140.788695],[38.348673,140.79154],[38.34643,140.793703],[38.345637,140.796099],[38.343883,140.797384],[38.343334,140.798936],[38.340414,140.80093],[38.338258,140.801363],[38.335891,140.802205],[38.333517,140.802307],[38.328469,140.806169],[38.329181,140.812616],[38.329146,140.815423],[38.328442,140.82027],[38.328021,140.835014],[38.328991,140.84288],[38.327154,140.84987],[38.325595,140.862604],[38.326381,140.869631],[38.325491,140.875202],[38.325142,140.878299],[38.324145,140.880551],[38.322924,140.88101]],"stops":[{"seq":1,"stop_id":"1825_10","name":"花輪","lat":38.345458,"lon":140.783147,"time":"12:25"},{"seq":2,"stop_id":"1823_10","name":"柏坊","lat":38.345263,"lon":140.774534,"time":"12:27"},{"seq":3,"stop_id":"1821_10","name":"藤沢","lat":38.349634,"lon":140.777084,"time":"12:28"},{"seq":4,"stop_id":"1819_10","name":"福岡小学校前","lat":38.35333,"lon":140.781155,"time":"12:30"},{"seq":5,"stop_id":"1817_10","name":"福岡","lat":38.353041,"lon":140.783337,"time":"12:30"},{"seq":6,"stop_id":"1815_10","name":"西泉","lat":38.350257,"lon":140.788695,"time":"12:31"},{"seq":7,"stop_id":"1813_10","name":"堂林","lat":38.348673,"lon":140.79154,"time":"12:32"},{"seq":8,"stop_id":"1811_10","name":"上ノ宿","lat":38.34643,"lon":140.793703,"time":"12:33"},{"seq":9,"stop_id":"1131_10","name":"町頭","lat":38.345637,"lon":140.796099,"time":"12:34"},{"seq":10,"stop_id":"1129_10","name":"根白石","lat":38.343883,"lon":140.797384,"time":"12:35"},{"seq":11,"stop_id":"1127_10","name":"根白石小学校前","lat":38.343334,"lon":140.798936,"time":"12:35"},{"seq":12,"stop_id":"1125_10","name":"根白石下町","lat":38.340414,"lon":140.80093,"time":"12:37"},{"seq":13,"stop_id":"1124_10","name":"根白石デイサービスセンター入口","lat":38.338258,"lon":140.801363,"time":"12:37"},{"seq":14,"stop_id":"1123_10","name":"判在家","lat":38.335891,"lon":140.802205,"time":"12:38"},{"seq":15,"stop_id":"1122_10","name":"福沢入口","lat":38.333517,"lon":140.802307,"time":"12:38"},{"seq":16,"stop_id":"1121_10","name":"窪","lat":38.328469,"lon":140.806169,"time":"12:39"},{"seq":17,"stop_id":"1119_10","name":"鼻毛橋","lat":38.329181,"lon":140.812616,"time":"12:41"},{"seq":18,"stop_id":"1117_10","name":"小角","lat":38.329146,"lon":140.815423,"time":"12:41"},{"seq":19,"stop_id":"1115_10","name":"実沢","lat":38.328442,"lon":140.82027,"time":"12:42"},{"seq":20,"stop_id":"1113_10","name":"八沢川","lat":38.328021,"lon":140.835014,"time":"12:44"},{"seq":21,"stop_id":"1111_10","name":"泉パークタウン入口","lat":38.328991,"lon":140.84288,"time":"12:46"},{"seq":22,"stop_id":"1109_10","name":"上野前","lat":38.327154,"lon":140.84987,"time":"12:47"},{"seq":23,"stop_id":"1107_10","name":"野村","lat":38.325595,"lon":140.862604,"time":"12:49"},{"seq":24,"stop_id":"1103_10","name":"泉総合運動場・社会福祉センター前","lat":38.326381,"lon":140.869631,"time":"12:50"},{"seq":25,"stop_id":"1099_10","name":"朴木沢","lat":38.325491,"lon":140.875202,"time":"12:51"},{"seq":26,"stop_id":"1095_10","name":"菅間","lat":38.325142,"lon":140.878299,"time":"12:52"},{"seq":27,"stop_id":"1093_10","name":"泉中央駅北口","lat":38.324145,"lon":140.880551,"time":"12:54"},{"seq":28,"stop_id":"1085_0","name":"泉中央駅","lat":38.322924,"lon":140.88101,"time":"12:55"}],"trip_counts":{"weekday":2,"saturday":6,"holiday":6}},{"pattern_id":"10009-2","direction_id":"1","headsign":"福岡・花輪","shape_id":"","trip_count":14,"sample_trip_id":"50_1_15001690","stop_count":28,"shape_point_count":28,"shape":[[38.322804,140.881418],[38.325242,140.881579],[38.325087,140.878404],[38.32538,140.875289],[38.326344,140.868513],[38.325479,140.862328],[38.327079,140.849855],[38.328858,140.843085],[38.328049,140.83461],[38.328289,140.820679],[38.329036,140.816313],[38.329112,140.812636],[38.328134,140.806555],[38.333517,140.802307],[38.336028,140.802082],[38.338258,140.801363],[38.34041,140.800829],[38.343319,140.798746],[38.343815,140.797312],[38.345637,140.796099],[38.34643,140.793703],[38.348673,140.79154],[38.350257,140.788695],[38.353041,140.783337],[38.35333,140.781155],[38.349634,140.777084],[38.345263,140.774534],[38.345507,140.783156]],"stops":[{"seq":1,"stop_id":"1085_12","name":"泉中央駅","lat":38.322804,"lon":140.881418,"time":"11:40"},{"seq":2,"stop_id":"1091_50","name":"泉区役所・イズミティ２１前","lat":38.325242,"lon":140.881579,"time":"11:42"},{"seq":3,"stop_id":"1095_50","name":"菅間","lat":38.325087,"lon":140.878404,"time":"11:43"},{"seq":4,"stop_id":"1099_50","name":"朴木沢","lat":38.32538,"lon":140.875289,"time":"11:44"},{"seq":5,"stop_id":"1103_50","name":"泉総合運動場・社会福祉センター前","lat":38.326344,"lon":140.868513,"time":"11:46"},{"seq":6,"stop_id":"1107_50","name":"野村","lat":38.325479,"lon":140.862328,"time":"11:47"},{"seq":7,"stop_id":"1109_50","name":"上野前","lat":38.327079,"lon":140.849855,"time":"11:48"},{"seq":8,"stop_id":"1111_50","name":"泉パークタウン入口","lat":38.328858,"lon":140.843085,"time":"11:50"},{"seq":9,"stop_id":"1113_50","name":"八沢川","lat":38.328049,"lon":140.83461,"time":"11:52"},{"seq":10,"stop_id":"1115_50","name":"実沢","lat":38.328289,"lon":140.820679,"time":"11:54"},{"seq":11,"stop_id":"1117_50","name":"小角","lat":38.329036,"lon":140.816313,"time":"11:55"},{"seq":12,"stop_id":"1119_50","name":"鼻毛橋","lat":38.329112,"lon":140.812636,"time":"11:56"},{"seq":13,"stop_id":"1121_50","name":"窪","lat":38.328134,"lon":140.806555,"time":"11:57"},{"seq":14,"stop_id":"1122_10","name":"福沢入口","lat":38.333517,"lon":140.802307,"time":"11:59"},{"seq":15,"stop_id":"1123_50","name":"判在家","lat":38.336028,"lon":140.802082,"time":"12:00"},{"seq":16,"stop_id":"1124_10","name":"根白石デイサービスセンター入口","lat":38.338258,"lon":140.801363,"time":"12:00"},{"seq":17,"stop_id":"1125_50","name":"根白石下町","lat":38.34041,"lon":140.800829,"time":"12:01"},{"seq":18,"stop_id":"1127_50","name":"根白石小学校前","lat":38.343319,"lon":140.798746,"time":"12:01"},{"seq":19,"stop_id":"1129_50","name":"根白石","lat":38.343815,"lon":140.797312,"time":"12:02"},{"seq":20,"stop_id":"1131_10","name":"町頭","lat":38.345637,"lon":140.796099,"time":"12:03"},{"seq":21,"stop_id":"1811_10","name":"上ノ宿","lat":38.34643,"lon":140.793703,"time":"12:04"},{"seq":22,"stop_id":"1813_10","name":"堂林","lat":38.348673,"lon":140.79154,"time":"12:05"},{"seq":23,"stop_id":"1815_10","name":"西泉","lat":38.350257,"lon":140.788695,"time":"12:05"},{"seq":24,"stop_id":"1817_10","name":"福岡","lat":38.353041,"lon":140.783337,"time":"12:06"},{"seq":25,"stop_id":"1819_10","name":"福岡小学校前","lat":38.35333,"lon":140.781155,"time":"12:06"},{"seq":26,"stop_id":"1821_10","name":"藤沢","lat":38.349634,"lon":140.777084,"time":"12:07"},{"seq":27,"stop_id":"1823_10","name":"柏坊","lat":38.345263,"lon":140.774534,"time":"12:08"},{"seq":28,"stop_id":"1825_0","name":"花輪","lat":38.345507,"lon":140.783156,"time":"12:08"}],"trip_counts":{"weekday":2,"saturday":6,"holiday":6}}],"pattern_count":2},{"route_id":"10010","short_name":"120","full_short_name":"120","long_name":"","color":"#A3D742","text_color":"#050505","patterns":[{"pattern_id":"10010-1","direction_id":"1","headsign":"鶴ケ谷七丁目","shape_id":"","trip_count":81,"sample_trip_id":"10_1_11000490","stop_count":29,"shape_point_count":29,"shape":[[38.259986,140.880506],[38.262058,140.873608],[38.264512,140.872235],[38.269275,140.86963],[38.271459,140.869032],[38.275043,140.870264],[38.27533,140.87225],[38.2759,140.876644],[38.276226,140.879553],[38.276472,140.88189],[38.276162,140.885791],[38.274447,140.889297],[38.273095,140.892699],[38.273083,140.894655],[38.273086,140.89981],[38.273069,140.902862],[38.273082,140.905447],[38.273609,140.907688],[38.276987,140.907681],[38.282566,140.911242],[38.28604,140.914538],[38.286614,140.912036],[38.287722,140.908666],[38.289992,140.906753],[38.291713,140.909605],[38.291685,140.91265],[38.290818,140.915843],[38.290094,140.919494],[38.289845,140.922453]],"stops":[{"seq":1,"stop_id":"50_154","name":"仙台駅前","lat":38.259986,"lon":140.880506,"time":"17:33"},{"seq":2,"stop_id":"55_152","name":"電力ビル前","lat":38.262058,"lon":140.873608,"time":"17:37"},{"seq":3,"stop_id":"65_51","name":"商工会議所前","lat":38.264512,"lon":140.872235,"time":"17:38"},{"seq":4,"stop_id":"70_51","name":"県庁市役所前","lat":38.269275,"lon":140.86963,"time":"17:42"},{"seq":5,"stop_id":"91_50","name":"二日町北四番丁","lat":38.271459,"lon":140.869032,"time":"17:44"},{"seq":6,"stop_id":"2002_50","name":"厚生病院前","lat":38.275043,"lon":140.870264,"time":"17:46"},{"seq":7,"stop_id":"2003_50","name":"上杉二丁目","lat":38.27533,"lon":140.87225,"time":"17:47"},{"seq":8,"stop_id":"2005_50","name":"附属小学校前","lat":38.2759,"lon":140.876644,"time":"17:48"},{"seq":9,"stop_id":"2007_50","name":"視覚支援学校前","lat":38.276226,"lon":140.879553,"time":"17:49"},{"seq":10,"stop_id":"2009_50","name":"北六番丁小学校前","lat":38.276472,"lon":140.88189,"time":"17:50"},{"seq":11,"stop_id":"2011_50","name":"宮町五丁目","lat":38.276162,"lon":140.885791,"time":"17:53"},{"seq":12,"stop_id":"2013_50","name":"福沢市民センター前","lat":38.274447,"lon":140.889297,"time":"17:55"},{"seq":13,"stop_id":"2015_50","name":"中江公園前","lat":38.273095,"lon":140.892699,"time":"17:56"},{"seq":14,"stop_id":"2017_50","name":"中江一丁目","lat":38.273083,"lon":140.894655,"time":"17:57"},{"seq":15,"stop_id":"2019_50","name":"幸町二丁目","lat":38.273086,"lon":140.89981,"time":"18:00"},{"seq":16,"stop_id":"2023_50","name":"幸町五丁目","lat":38.273069,"lon":140.902862,"time":"18:01"},{"seq":17,"stop_id":"2025_50","name":"大梶","lat":38.273082,"lon":140.905447,"time":"18:02"},{"seq":18,"stop_id":"2103_50","name":"ガス局前","lat":38.273609,"lon":140.907688,"time":"18:06"},{"seq":19,"stop_id":"2105_50","name":"保健環境センター・青年会館前","lat":38.276987,"lon":140.907681,"time":"18:08"},{"seq":20,"stop_id":"2107_50","name":"安養寺三丁目","lat":38.282566,"lon":140.911242,"time":"18:09"},{"seq":21,"stop_id":"2109_151","name":"鶴ケ谷団地入口","lat":38.28604,"lon":140.914538,"time":"18:11"},{"seq":22,"stop_id":"2529_10","name":"鶴ケ谷二丁目","lat":38.286614,"lon":140.912036,"time":"18:12"},{"seq":23,"stop_id":"2527_10","name":"鶴ケ谷三丁目三高前","lat":38.287722,"lon":140.908666,"time":"18:13"},{"seq":24,"stop_id":"2525_51","name":"鶴ケ谷四丁目","lat":38.289992,"lon":140.906753,"time":"18:14"},{"seq":25,"stop_id":"2575_50","name":"鶴谷小学校前","lat":38.291713,"lon":140.909605,"time":"18:16"},{"seq":26,"stop_id":"2573_50","name":"鶴ケ谷五丁目","lat":38.291685,"lon":140.91265,"time":"18:17"},{"seq":27,"stop_id":"2113_52","name":"鶴ケ谷中央","lat":38.290818,"lon":140.915843,"time":"18:18"},{"seq":28,"stop_id":"2571_10","name":"鶴ケ谷六丁目東小学校前","lat":38.290094,"lon":140.919494,"time":"18:19"},{"seq":29,"stop_id":"2539_0","name":"鶴ケ谷七丁目","lat":38.289845,"lon":140.922453,"time":"18:21"}],"trip_counts":{"weekday":31,"saturday":26,"holiday":24}}],"pattern_count":1},{"route_id":"10012","short_name":"13","full_short_name":"13","long_name":"","color":"#A3D742","text_color":"#050505","patterns":[{"pattern_id":"10012-1","direction_id":"1","headsign":"根白石市民センタ−","shape_id":"","trip_count":1,"sample_trip_id":"50_1_15001710","stop_count":20,"shape_point_count":20,"shape":[[38.322804,140.881418],[38.325242,140.881579],[38.325087,140.878404],[38.32538,140.875289],[38.326344,140.868513],[38.325479,140.862328],[38.327079,140.849855],[38.328858,140.843085],[38.328049,140.83461],[38.328289,140.820679],[38.329036,140.816313],[38.329112,140.812636],[38.328134,140.806555],[38.333517,140.802307],[38.336028,140.802082],[38.338258,140.801363],[38.34041,140.800829],[38.343319,140.798746],[38.343815,140.797312],[38.34267,140.795426]],"stops":[{"seq":1,"stop_id":"1085_12","name":"泉中央駅","lat":38.322804,"lon":140.881418,"time":"07:50"},{"seq":2,"stop_id":"1091_50","name":"泉区役所・イズミティ２１前","lat":38.325242,"lon":140.881579,"time":"07:52"},{"seq":3,"stop_id":"1095_50","name":"菅間","lat":38.325087,"lon":140.878404,"time":"07:54"},{"seq":4,"stop_id":"1099_50","name":"朴木沢","lat":38.32538,"lon":140.875289,"time":"07:55"},{"seq":5,"stop_id":"1103_50","name":"泉総合運動場・社会福祉センター前","lat":38.326344,"lon":140.868513,"time":"07:57"},{"seq":6,"stop_id":"1107_50","name":"野村","lat":38.325479,"lon":140.862328,"time":"07:59"},{"seq":7,"stop_id":"1109_50","name":"上野前","lat":38.327079,"lon":140.849855,"time":"08:01"},{"seq":8,"stop_id":"1111_50","name":"泉パークタウン入口","lat":38.328858,"lon":140.843085,"time":"08:03"},{"seq":9,"stop_id":"1113_50","name":"八沢川","lat":38.328049,"lon":140.83461,"time":"08:05"},{"seq":10,"stop_id":"1115_50","name":"実沢","lat":38.328289,"lon":140.820679,"time":"08:07"},{"seq":11,"stop_id":"1117_50","name":"小角","lat":38.329036,"lon":140.816313,"time":"08:08"},{"seq":12,"stop_id":"1119_50","name":"鼻毛橋","lat":38.329112,"lon":140.812636,"time":"08:09"},{"seq":13,"stop_id":"1121_50","name":"窪","lat":38.328134,"lon":140.806555,"time":"08:10"},{"seq":14,"stop_id":"1122_10","name":"福沢入口","lat":38.333517,"lon":140.802307,"time":"08:11"},{"seq":15,"stop_id":"1123_50","name":"判在家","lat":38.336028,"lon":140.802082,"time":"08:12"},{"seq":16,"stop_id":"1124_10","name":"根白石デイサービスセンター入口","lat":38.338258,"lon":140.801363,"time":"08:12"},{"seq":17,"stop_id":"1125_50","name":"根白石下町","lat":38.34041,"lon":140.800829,"time":"08:14"},{"seq":18,"stop_id":"1127_50","name":"根白石小学校前","lat":38.343319,"lon":140.798746,"time":"08:14"},{"seq":19,"stop_id":"1129_50","name":"根白石","lat":38.343815,"lon":140.797312,"time":"08:15"},{"seq":20,"stop_id":"1130_0","name":"根白石市民センター前","lat":38.34267,"lon":140.795426,"time":"08:16"}],"trip_counts":{"weekday":1,"saturday":0,"holiday":0}}],"pattern_count":1},{"route_id":"10013","short_name":"130","full_short_name":"130","long_name":"","color":"#A3D742","text_color":"#050505","patterns":[{"pattern_id":"10013-1","direction_id":"1","headsign":"高松・安養寺二丁目","shape_id":"","trip_count":14,"sample_trip_id":"10_1_11001420","stop_count":21,"shape_point_count":21,"shape":[[38.26003,140.880685],[38.262058,140.873608],[38.264512,140.872235],[38.269275,140.86963],[38.271459,140.869032],[38.275043,140.870264],[38.27533,140.87225],[38.2759,140.876644],[38.276226,140.879553],[38.276472,140.88189],[38.276783,140.884538],[38.279165,140.886037],[38.281278,140.892166],[38.280915,140.894967],[38.280361,140.897677],[38.279133,140.900676],[38.278215,140.902018],[38.279973,140.903297],[38.283077,140.904734],[38.284472,140.903554],[38.286575,140.901319]],"stops":[{"seq":1,"stop_id":"50_153","name":"仙台駅前","lat":38.26003,"lon":140.880685,"time":"18:08"},{"seq":2,"stop_id":"55_152","name":"電力ビル前","lat":38.262058,"lon":140.873608,"time":"18:12"},{"seq":3,"stop_id":"65_51","name":"商工会議所前","lat":38.264512,"lon":140.872235,"time":"18:13"},{"seq":4,"stop_id":"70_51","name":"県庁市役所前","lat":38.269275,"lon":140.86963,"time":"18:17"},{"seq":5,"stop_id":"91_50","name":"二日町北四番丁","lat":38.271459,"lon":140.869032,"time":"18:19"},{"seq":6,"stop_id":"2002_50","name":"厚生病院前","lat":38.275043,"lon":140.870264,"time":"18:21"},{"seq":7,"stop_id":"2003_50","name":"上杉二丁目","lat":38.27533,"lon":140.87225,"time":"18:22"},{"seq":8,"stop_id":"2005_50","name":"附属小学校前","lat":38.2759,"lon":140.876644,"time":"18:23"},{"seq":9,"stop_id":"2007_50","name":"視覚支援学校前","lat":38.276226,"lon":140.879553,"time":"18:24"},{"seq":10,"stop_id":"2009_50","name":"北六番丁小学校前","lat":38.276472,"lon":140.88189,"time":"18:25"},{"seq":11,"stop_id":"2417_50","name":"東照宮駅入口","lat":38.276783,"lon":140.884538,"time":"18:28"},{"seq":12,"stop_id":"2419_50","name":"東照宮一丁目","lat":38.279165,"lon":140.886037,"time":"18:30"},{"seq":13,"stop_id":"2211_50","name":"高松入口","lat":38.281278,"lon":140.892166,"time":"18:32"},{"seq":14,"stop_id":"2213_50","name":"高松二丁目","lat":38.280915,"lon":140.894967,"time":"18:33"},{"seq":15,"stop_id":"2215_50","name":"高松三丁目","lat":38.280361,"lon":140.897677,"time":"18:34"},{"seq":16,"stop_id":"2217_10","name":"与兵衛沼入口","lat":38.279133,"lon":140.900676,"time":"18:35"},{"seq":17,"stop_id":"2222_50","name":"二の森東","lat":38.278215,"lon":140.902018,"time":"18:36"},{"seq":18,"stop_id":"2240_50","name":"枡江小学校前","lat":38.279973,"lon":140.903297,"time":"18:37"},{"seq":19,"stop_id":"2241_50","name":"安養寺配水所前","lat":38.283077,"lon":140.904734,"time":"18:38"},{"seq":20,"stop_id":"2243_50","name":"安養寺二丁目中","lat":38.284472,"lon":140.903554,"time":"18:40"},{"seq":21,"stop_id":"2245_0","name":"安養寺二丁目","lat":38.286575,"lon":140.901319,"time":"18:44"}],"trip_counts":{"weekday":8,"saturday":3,"holiday":3}}],"pattern_count":1},{"route_id":"10014","short_name":"135","full_short_name":"135","long_name":"","color":"#A3D742","text_color":"#050505","patterns":[{"pattern_id":"10014-1","direction_id":"1","headsign":"安養寺二丁目・台原駅","shape_id":"","trip_count":1,"sample_trip_id":"10_1_11001960","stop_count":26,"shape_point_count":26,"shape":[[38.26003,140.880685],[38.262058,140.873608],[38.264512,140.872235],[38.269275,140.86963],[38.271459,140.869032],[38.275043,140.870264],[38.27533,140.87225],[38.2759,140.876644],[38.276226,140.879553],[38.276472,140.88189],[38.276783,140.884538],[38.279165,140.886037],[38.279512,140.889829],[38.278543,140.895023],[38.277797,140.899828],[38.278215,140.902018],[38.279973,140.903297],[38.283077,140.904734],[38.284472,140.903554],[38.286576,140.901316],[38.285706,140.897967],[38.287456,140.893641],[38.288833,140.890213],[38.289277,140.886508],[38.289584,140.881905],[38.288668,140.878283]],"stops":[{"seq":1,"stop_id":"50_153","name":"仙台駅前","lat":38.26003,"lon":140.880685,"time":"17:28"},{"seq":2,"stop_id":"55_152","name":"電力ビル前","lat":38.262058,"lon":140.873608,"time":"17:32"},{"seq":3,"stop_id":"65_51","name":"商工会議所前","lat":38.264512,"lon":140.872235,"time":"17:33"},{"seq":4,"stop_id":"70_51","name":"県庁市役所前","lat":38.269275,"lon":140.86963,"time":"17:37"},{"seq":5,"stop_id":"91_50","name":"二日町北四番丁","lat":38.271459,"lon":140.869032,"time":"17:39"},{"seq":6,"stop_id":"2002_50","name":"厚生病院前","lat":38.275043,"lon":140.870264,"time":"17:41"},{"seq":7,"stop_id":"2003_50","name":"上杉二丁目","lat":38.27533,"lon":140.87225,"time":"17:42"},{"seq":8,"stop_id":"2005_50","name":"附属小学校前","lat":38.2759,"lon":140.876644,"time":"17:43"},{"seq":9,"stop_id":"2007_50","name":"視覚支援学校前","lat":38.276226,"lon":140.879553,"time":"17:44"},{"seq":10,"stop_id":"2009_50","name":"北六番丁小学校前","lat":38.276472,"lon":140.88189,"time":"17:45"},{"seq":11,"stop_id":"2417_50","name":"東照宮駅入口","lat":38.276783,"lon":140.884538,"time":"17:48"},{"seq":12,"stop_id":"2419_50","name":"東照宮一丁目","lat":38.279165,"lon":140.886037,"time":"17:50"},{"seq":13,"stop_id":"2201_50","name":"小松島小学校前","lat":38.279512,"lon":140.889829,"time":"17:52"},{"seq":14,"stop_id":"2203_50","name":"幸町一丁目","lat":38.278543,"lon":140.895023,"time":"17:53"},{"seq":15,"stop_id":"2221_50","name":"二の森","lat":38.277797,"lon":140.899828,"time":"17:54"},{"seq":16,"stop_id":"2222_50","name":"二の森東","lat":38.278215,"lon":140.902018,"time":"17:55"},{"seq":17,"stop_id":"2240_50","name":"枡江小学校前","lat":38.279973,"lon":140.903297,"time":"17:56"},{"seq":18,"stop_id":"2241_50","name":"安養寺配水所前","lat":38.283077,"lon":140.904734,"time":"17:57"},{"seq":19,"stop_id":"2243_50","name":"安養寺二丁目中","lat":38.284472,"lon":140.903554,"time":"17:59"},{"seq":20,"stop_id":"2245_10","name":"安養寺二丁目","lat":38.286576,"lon":140.901316,"time":"18:03"},{"seq":21,"stop_id":"2247_50","name":"与兵衛沼公園前","lat":38.285706,"lon":140.897967,"time":"18:04"},{"seq":22,"stop_id":"2249_50","name":"小松島新堤橋","lat":38.287456,"lon":140.893641,"time":"18:04"},{"seq":23,"stop_id":"2311_51","name":"南光台入口","lat":38.288833,"lon":140.890213,"time":"18:05"},{"seq":24,"stop_id":"2425_51","name":"旭ケ丘一丁目東","lat":38.289277,"lon":140.886508,"time":"18:06"},{"seq":25,"stop_id":"2431_50","name":"旭ケ丘一丁目北","lat":38.289584,"lon":140.881905,"time":"18:07"},{"seq":26,"stop_id":"2441_0","name":"台原駅","lat":38.288668,"lon":140.878283,"time":"18:08"}],"trip_counts":{"weekday":1,"saturday":0,"holiday":0}}],"pattern_count":1},{"route_id":"10015","short_name":"14","full_short_name":"14","long_name":"","color":"#A3D742","text_color":"#050505","patterns":[{"pattern_id":"10015-2","direction_id":"1","headsign":"実沢営業所","shape_id":"","trip_count":5,"sample_trip_id":"50_1_15005090","stop_count":12,"shape_point_count":12,"shape":[[38.322804,140.881418],[38.325242,140.881579],[38.325087,140.878404],[38.32538,140.875289],[38.326344,140.868513],[38.325479,140.862328],[38.327079,140.849855],[38.328858,140.843085],[38.328049,140.83461],[38.328276,140.823824],[38.324402,140.822008],[38.323518,140.818438]],"stops":[{"seq":1,"stop_id":"1085_12","name":"泉中央駅","lat":38.322804,"lon":140.881418,"time":"08:25"},{"seq":2,"stop_id":"1091_50","name":"泉区役所・イズミティ２１前","lat":38.325242,"lon":140.881579,"time":"08:27"},{"seq":3,"stop_id":"1095_50","name":"菅間","lat":38.325087,"lon":140.878404,"time":"08:28"},{"seq":4,"stop_id":"1099_50","name":"朴木沢","lat":38.32538,"lon":140.875289,"time":"08:29"},{"seq":5,"stop_id":"1103_50","name":"泉総合運動場・社会福祉センター前","lat":38.326344,"lon":140.868513,"time":"08:31"},{"seq":6,"stop_id":"1107_50","name":"野村","lat":38.325479,"lon":140.862328,"time":"08:32"},{"seq":7,"stop_id":"1109_50","name":"上野前","lat":38.327079,"lon":140.849855,"time":"08:33"},{"seq":8,"stop_id":"1111_50","name":"泉パークタウン入口","lat":38.328858,"lon":140.843085,"time":"08:35"},{"seq":9,"stop_id":"1113_50","name":"八沢川","lat":38.328049,"lon":140.83461,"time":"08:37"},{"seq":10,"stop_id":"1115_151","name":"実沢","lat":38.328276,"lon":140.823824,"time":"08:39"},{"seq":11,"stop_id":"9256_10","name":"熊野神社前","lat":38.324402,"lon":140.822008,"time":"08:40"},{"seq":12,"stop_id":"9260_0","name":"市営バス実沢営業所前","lat":38.323518,"lon":140.818438,"time":"08:40"}],"trip_counts":{"weekday":1,"saturday":2,"holiday":2}},{"pattern_id":"10015-1","direction_id":"0","headsign":"泉中央駅","shape_id":"","trip_count":2,"sample_trip_id":"50_1_15001940","stop_count":12,"shape_point_count":12,"shape":[[38.323512,140.818294],[38.324402,140.822008],[38.328276,140.823824],[38.328021,140.835014],[38.328991,140.84288],[38.327154,140.84987],[38.325595,140.862604],[38.326381,140.869631],[38.325491,140.875202],[38.325142,140.878299],[38.324145,140.880551],[38.322924,140.88101]],"stops":[{"seq":1,"stop_id":"9260_10","name":"市営バス実沢営業所前","lat":38.323512,"lon":140.818294,"time":"16:10"},{"seq":2,"stop_id":"9256_10","name":"熊野神社前","lat":38.324402,"lon":140.822008,"time":"16:10"},{"seq":3,"stop_id":"1115_151","name":"実沢","lat":38.328276,"lon":140.823824,"time":"16:11"},{"seq":4,"stop_id":"1113_10","name":"八沢川","lat":38.328021,"lon":140.835014,"time":"16:13"},{"seq":5,"stop_id":"1111_10","name":"泉パークタウン入口","lat":38.328991,"lon":140.84288,"time":"16:15"},{"seq":6,"stop_id":"1109_10","name":"上野前","lat":38.327154,"lon":140.84987,"time":"16:16"},{"seq":7,"stop_id":"1107_10","name":"野村","lat":38.325595,"lon":140.862604,"time":"16:18"},{"seq":8,"stop_id":"1103_10","name":"泉総合運動場・社会福祉センター前","lat":38.326381,"lon":140.869631,"time":"16:19"},{"seq":9,"stop_id":"1099_10","name":"朴木沢","lat":38.325491,"lon":140.875202,"time":"16:20"},{"seq":10,"stop_id":"1095_10","name":"菅間","lat":38.325142,"lon":140.878299,"time":"16:21"},{"seq":11,"stop_id":"1093_10","name":"泉中央駅北口","lat":38.324145,"lon":140.880551,"time":"16:23"},{"seq":12,"stop_id":"1085_0","name":"泉中央駅","lat":38.322924,"lon":140.88101,"time":"16:24"}],"trip_counts":{"weekday":2,"saturday":0,"holiday":0}}],"pattern_count":2},{"route_id":"10017","short_name":"15","full_short_name":"15","long_name":"","color":"#A3D742","text_color":"#050505","patterns":[{"pattern_id":"10017-3","direction_id":"1","headsign":"南仙台駅・四郎丸","shape_id":"","trip_count":39,"sample_trip_id":"30_1_13000220","stop_count":31,"shape_point_count":31,"shape":[[38.228743,140.882397],[38.227338,140.884949],[38.223219,140.883955],[38.219767,140.883125],[38.216856,140.883096],[38.214533,140.884701],[38.210449,140.884595],[38.203382,140.884939],[38.198886,140.885048],[38.197292,140.883666],[38.197484,140.88577],[38.197523,140.889407],[38.196926,140.893096],[38.195669,140.893739],[38.192496,140.897704],[38.192205,140.9007],[38.190384,140.903409],[38.192114,140.904717],[38.193883,140.906365],[38.195066,140.90794],[38.197897,140.9083],[38.19998,140.907059],[38.20013,140.910027],[38.199982,140.912797],[38.199522,140.915655],[38.196925,140.918321],[38.195664,140.919746],[38.193857,140.91986],[38.191816,140.919843],[38.191658,140.923309],[38.189547,140.929342]],"stops":[{"seq":1,"stop_id":"7101_51","name":"長町四丁目長町営業所前","lat":38.228743,"lon":140.882397,"time":"09:13"},{"seq":2,"stop_id":"6007_50","name":"長町駅・たいはっくる前","lat":38.227338,"lon":140.884949,"time":"09:15"},{"seq":3,"stop_id":"6015_50","name":"南警察署前","lat":38.223219,"lon":140.883955,"time":"09:16"},{"seq":4,"stop_id":"6017_50","name":"長町六丁目","lat":38.219767,"lon":140.883125,"time":"09:17"},{"seq":5,"stop_id":"6020_50","name":"太子堂駅前","lat":38.216856,"lon":140.883096,"time":"09:18"},{"seq":6,"stop_id":"6019_50","name":"諏訪町","lat":38.214533,"lon":140.884701,"time":"09:19"},{"seq":7,"stop_id":"6021_50","name":"東大野田","lat":38.210449,"lon":140.884595,"time":"09:21"},{"seq":8,"stop_id":"6023_50","name":"中田一丁目","lat":38.203382,"lon":140.884939,"time":"09:24"},{"seq":9,"stop_id":"6029_50","name":"中田三丁目","lat":38.198886,"lon":140.885048,"time":"09:25"},{"seq":10,"stop_id":"6163_50","name":"南仙台駅東口","lat":38.197292,"lon":140.883666,"time":"09:29"},{"seq":11,"stop_id":"6027_51","name":"中田五丁目","lat":38.197484,"lon":140.88577,"time":"09:29"},{"seq":12,"stop_id":"6133_50","name":"中田中学校前","lat":38.197523,"lon":140.889407,"time":"09:30"},{"seq":13,"stop_id":"6135_50","name":"中田神明東","lat":38.196926,"lon":140.893096,"time":"09:32"},{"seq":14,"stop_id":"6136_50","name":"中田二軒橋","lat":38.195669,"lon":140.893739,"time":"09:33"},{"seq":15,"stop_id":"6137_50","name":"ＪＣＨＯ仙台南病院入口","lat":38.192496,"lon":140.897704,"time":"09:34"},{"seq":16,"stop_id":"6139_50","name":"東前田","lat":38.192205,"lon":140.9007,"time":"09:35"},{"seq":17,"stop_id":"6113_50","name":"堰場","lat":38.190384,"lon":140.903409,"time":"09:36"},{"seq":18,"stop_id":"6112_10","name":"袋原南","lat":38.192114,"lon":140.904717,"time":"09:36"},{"seq":19,"stop_id":"6111_10","name":"袋原市営住宅前","lat":38.193883,"lon":140.906365,"time":"09:37"},{"seq":20,"stop_id":"6109_10","name":"畑中","lat":38.195066,"lon":140.90794,"time":"09:38"},{"seq":21,"stop_id":"6108_10","name":"袋原四丁目","lat":38.197897,"lon":140.9083,"time":"09:39"},{"seq":22,"stop_id":"6107_51","name":"袋原","lat":38.19998,"lon":140.907059,"time":"09:41"},{"seq":23,"stop_id":"6141_50","name":"袋原三丁目","lat":38.20013,"lon":140.910027,"time":"09:42"},{"seq":24,"stop_id":"6142_50","name":"袋原中学校前","lat":38.199982,"lon":140.912797,"time":"09:42"},{"seq":25,"stop_id":"6143_50","name":"袋原落合ポンプ場前","lat":38.199522,"lon":140.915655,"time":"09:43"},{"seq":26,"stop_id":"6145_10","name":"観音堂前","lat":38.196925,"lon":140.918321,"time":"09:43"},{"seq":27,"stop_id":"6147_10","name":"四郎丸東市営住宅前","lat":38.195664,"lon":140.919746,"time":"09:44"},{"seq":28,"stop_id":"6148_50","name":"東四郎丸","lat":38.193857,"lon":140.91986,"time":"09:44"},{"seq":29,"stop_id":"6119_10","name":"浜堀","lat":38.191816,"lon":140.919843,"time":"09:45"},{"seq":30,"stop_id":"6121_10","name":"昭和北","lat":38.191658,"lon":140.923309,"time":"09:46"},{"seq":31,"stop_id":"6123_0","name":"四郎丸","lat":38.189547,"lon":140.929342,"time":"09:47"}],"trip_counts":{"weekday":7,"saturday":16,"holiday":16}},{"pattern_id":"10017-2","direction_id":"0","headsign":"南仙台駅・長町(営)","shape_id":"","trip_count":36,"sample_trip_id":"30_1_13001800","stop_count":31,"shape_point_count":31,"shape":[[38.189606,140.92919],[38.191658,140.923309],[38.191816,140.919843],[38.19383,140.919678],[38.195664,140.919746],[38.196925,140.918321],[38.199414,140.915707],[38.199931,140.912279],[38.200118,140.909903],[38.199995,140.907284],[38.198504,140.908066],[38.195042,140.908142],[38.193929,140.906458],[38.191865,140.904485],[38.190384,140.903409],[38.192142,140.900636],[38.192431,140.89728],[38.195952,140.893033],[38.197012,140.893004],[38.197345,140.889194],[38.197328,140.886106],[38.197145,140.883679],[38.199302,140.884963],[38.20292,140.884785],[38.210045,140.884537],[38.214047,140.884577],[38.217232,140.882312],[38.220166,140.882929],[38.22416,140.884038],[38.228002,140.884745],[38.228857,140.882343]],"stops":[{"seq":1,"stop_id":"6123_10","name":"四郎丸","lat":38.189606,"lon":140.92919,"time":"14:39"},{"seq":2,"stop_id":"6121_10","name":"昭和北","lat":38.191658,"lon":140.923309,"time":"14:40"},{"seq":3,"stop_id":"6119_10","name":"浜堀","lat":38.191816,"lon":140.919843,"time":"14:40"},{"seq":4,"stop_id":"6148_10","name":"東四郎丸","lat":38.19383,"lon":140.919678,"time":"14:41"},{"seq":5,"stop_id":"6147_10","name":"四郎丸東市営住宅前","lat":38.195664,"lon":140.919746,"time":"14:42"},{"seq":6,"stop_id":"6145_10","name":"観音堂前","lat":38.196925,"lon":140.918321,"time":"14:43"},{"seq":7,"stop_id":"6143_10","name":"袋原落合ポンプ場前","lat":38.199414,"lon":140.915707,"time":"14:43"},{"seq":8,"stop_id":"6142_10","name":"袋原中学校前","lat":38.199931,"lon":140.912279,"time":"14:44"},{"seq":9,"stop_id":"6141_10","name":"袋原三丁目","lat":38.200118,"lon":140.909903,"time":"14:44"},{"seq":10,"stop_id":"6107_11","name":"袋原","lat":38.199995,"lon":140.907284,"time":"14:45"},{"seq":11,"stop_id":"6108_50","name":"袋原四丁目","lat":38.198504,"lon":140.908066,"time":"14:46"},{"seq":12,"stop_id":"6109_50","name":"畑中","lat":38.195042,"lon":140.908142,"time":"14:47"},{"seq":13,"stop_id":"6111_50","name":"袋原市営住宅前","lat":38.193929,"lon":140.906458,"time":"14:47"},{"seq":14,"stop_id":"6112_50","name":"袋原南","lat":38.191865,"lon":140.904485,"time":"14:48"},{"seq":15,"stop_id":"6113_50","name":"堰場","lat":38.190384,"lon":140.903409,"time":"14:49"},{"seq":16,"stop_id":"6139_10","name":"東前田","lat":38.192142,"lon":140.900636,"time":"14:50"},{"seq":17,"stop_id":"6137_10","name":"ＪＣＨＯ仙台南病院入口","lat":38.192431,"lon":140.89728,"time":"14:51"},{"seq":18,"stop_id":"6136_10","name":"中田二軒橋","lat":38.195952,"lon":140.893033,"time":"14:52"},{"seq":19,"stop_id":"6135_10","name":"中田神明東","lat":38.197012,"lon":140.893004,"time":"14:53"},{"seq":20,"stop_id":"6133_10","name":"中田中学校前","lat":38.197345,"lon":140.889194,"time":"14:56"},{"seq":21,"stop_id":"6027_111","name":"中田五丁目","lat":38.197328,"lon":140.886106,"time":"14:57"},{"seq":22,"stop_id":"6163_10","name":"南仙台駅東口","lat":38.197145,"lon":140.883679,"time":"15:03"},{"seq":23,"stop_id":"6029_10","name":"中田三丁目","lat":38.199302,"lon":140.884963,"time":"15:04"},{"seq":24,"stop_id":"6023_10","name":"中田一丁目","lat":38.20292,"lon":140.884785,"time":"15:05"},{"seq":25,"stop_id":"6021_10","name":"東大野田","lat":38.210045,"lon":140.884537,"time":"15:07"},{"seq":26,"stop_id":"6019_10","name":"諏訪町","lat":38.214047,"lon":140.884577,"time":"15:08"},{"seq":27,"stop_id":"6020_10","name":"太子堂駅前","lat":38.217232,"lon":140.882312,"time":"15:09"},{"seq":28,"stop_id":"6017_10","name":"長町六丁目","lat":38.220166,"lon":140.882929,"time":"15:10"},{"seq":29,"stop_id":"6015_10","name":"南警察署前","lat":38.22416,"lon":140.884038,"time":"15:11"},{"seq":30,"stop_id":"6007_10","name":"長町駅・たいはっくる前","lat":38.228002,"lon":140.884745,"time":"15:13"},{"seq":31,"stop_id":"7101_0","name":"長町四丁目長町営業所前","lat":38.228857,"lon":140.882343,"time":"15:15"}],"trip_counts":{"weekday":6,"saturday":16,"holiday":14}},{"pattern_id":"10017-1","direction_id":"1","headsign":"南仙台駅・四郎丸","shape_id":"","trip_count":7,"sample_trip_id":"30_1_13002740","stop_count":33,"shape_point_count":33,"shape":[[38.224011,140.876438],[38.228396,140.878078],[38.229055,140.881165],[38.227338,140.884949],[38.223219,140.883955],[38.219767,140.883125],[38.216856,140.883096],[38.214533,140.884701],[38.210449,140.884595],[38.203382,140.884939],[38.198886,140.885048],[38.197292,140.883666],[38.197484,140.88577],[38.197523,140.889407],[38.196926,140.893096],[38.195669,140.893739],[38.192496,140.897704],[38.192205,140.9007],[38.190384,140.903409],[38.192114,140.904717],[38.193883,140.906365],[38.195066,140.90794],[38.197897,140.9083],[38.19998,140.907059],[38.20013,140.910027],[38.199982,140.912797],[38.199522,140.915655],[38.196925,140.918321],[38.195664,140.919746],[38.193857,140.91986],[38.191816,140.919843],[38.191658,140.923309],[38.189547,140.929342]],"stops":[{"seq":1,"stop_id":"7111_51","name":"長町南駅・太白区役所前","lat":38.224011,"lon":140.876438,"time":"08:35"},{"seq":2,"stop_id":"7115_10","name":"長町七丁目北","lat":38.228396,"lon":140.878078,"time":"08:37"},{"seq":3,"stop_id":"7101_10","name":"長町四丁目長町営業所前","lat":38.229055,"lon":140.881165,"time":"08:38"},{"seq":4,"stop_id":"6007_50","name":"長町駅・たいはっくる前","lat":38.227338,"lon":140.884949,"time":"08:40"},{"seq":5,"stop_id":"6015_50","name":"南警察署前","lat":38.223219,"lon":140.883955,"time":"08:41"},{"seq":6,"stop_id":"6017_50","name":"長町六丁目","lat":38.219767,"lon":140.883125,"time":"08:42"},{"seq":7,"stop_id":"6020_50","name":"太子堂駅前","lat":38.216856,"lon":140.883096,"time":"08:43"},{"seq":8,"stop_id":"6019_50","name":"諏訪町","lat":38.214533,"lon":140.884701,"time":"08:44"},{"seq":9,"stop_id":"6021_50","name":"東大野田","lat":38.210449,"lon":140.884595,"time":"08:46"},{"seq":10,"stop_id":"6023_50","name":"中田一丁目","lat":38.203382,"lon":140.884939,"time":"08:49"},{"seq":11,"stop_id":"6029_50","name":"中田三丁目","lat":38.198886,"lon":140.885048,"time":"08:50"},{"seq":12,"stop_id":"6163_50","name":"南仙台駅東口","lat":38.197292,"lon":140.883666,"time":"08:54"},{"seq":13,"stop_id":"6027_51","name":"中田五丁目","lat":38.197484,"lon":140.88577,"time":"08:54"},{"seq":14,"stop_id":"6133_50","name":"中田中学校前","lat":38.197523,"lon":140.889407,"time":"08:55"},{"seq":15,"stop_id":"6135_50","name":"中田神明東","lat":38.196926,"lon":140.893096,"time":"08:57"},{"seq":16,"stop_id":"6136_50","name":"中田二軒橋","lat":38.195669,"lon":140.893739,"time":"08:58"},{"seq":17,"stop_id":"6137_50","name":"ＪＣＨＯ仙台南病院入口","lat":38.192496,"lon":140.897704,"time":"08:59"},{"seq":18,"stop_id":"6139_50","name":"東前田","lat":38.192205,"lon":140.9007,"time":"09:00"},{"seq":19,"stop_id":"6113_50","name":"堰場","lat":38.190384,"lon":140.903409,"time":"09:01"},{"seq":20,"stop_id":"6112_10","name":"袋原南","lat":38.192114,"lon":140.904717,"time":"09:01"},{"seq":21,"stop_id":"6111_10","name":"袋原市営住宅前","lat":38.193883,"lon":140.906365,"time":"09:02"},{"seq":22,"stop_id":"6109_10","name":"畑中","lat":38.195066,"lon":140.90794,"time":"09:03"},{"seq":23,"stop_id":"6108_10","name":"袋原四丁目","lat":38.197897,"lon":140.9083,"time":"09:04"},{"seq":24,"stop_id":"6107_51","name":"袋原","lat":38.19998,"lon":140.907059,"time":"09:06"},{"seq":25,"stop_id":"6141_50","name":"袋原三丁目","lat":38.20013,"lon":140.910027,"time":"09:07"},{"seq":26,"stop_id":"6142_50","name":"袋原中学校前","lat":38.199982,"lon":140.912797,"time":"09:07"},{"seq":27,"stop_id":"6143_50","name":"袋原落合ポンプ場前","lat":38.199522,"lon":140.915655,"time":"09:08"},{"seq":28,"stop_id":"6145_10","name":"観音堂前","lat":38.196925,"lon":140.918321,"time":"09:08"},{"seq":29,"stop_id":"6147_10","name":"四郎丸東市営住宅前","lat":38.195664,"lon":140.919746,"time":"09:09"},{"seq":30,"stop_id":"6148_50","name":"東四郎丸","lat":38.193857,"lon":140.91986,"time":"09:09"},{"seq":31,"stop_id":"6119_10","name":"浜堀","lat":38.191816,"lon":140.919843,"time":"09:10"},{"seq":32,"stop_id":"6121_10","name":"昭和北","lat":38.191658,"lon":140.923309,"time":"09:11"},{"seq":33,"stop_id":"6123_0","name":"四郎丸","lat":38.189547,"lon":140.929342,"time":"09:12"}],"trip_counts":{"weekday":7,"saturday":0,"holiday":0}}],"pattern_count":3},{"route_id":"10018","short_name":"15","full_short_name":"15","long_name":"","color":"#A3D742","text_color":"#050505","patterns":[{"pattern_id":"10018-1","direction_id":"1","headsign":"朴   沢","shape_id":"","trip_count":4,"sample_trip_id":"50_2_25000120","stop_count":21,"shape_point_count":21,"shape":[[38.323512,140.818294],[38.324402,140.822008],[38.328289,140.820679],[38.329036,140.816313],[38.329112,140.812636],[38.328134,140.806555],[38.333517,140.802307],[38.336028,140.802082],[38.338258,140.801363],[38.34041,140.800829],[38.343319,140.798746],[38.343815,140.797312],[38.346184,140.79685],[38.34756,140.7954],[38.350977,140.793959],[38.354917,140.786141],[38.3554,140.783956],[38.359318,140.786577],[38.362073,140.78984],[38.365638,140.79013],[38.373554,140.78915]],"stops":[{"seq":1,"stop_id":"9260_10","name":"市営バス実沢営業所前","lat":38.323512,"lon":140.818294,"time":"13:33"},{"seq":2,"stop_id":"9256_10","name":"熊野神社前","lat":38.324402,"lon":140.822008,"time":"13:33"},{"seq":3,"stop_id":"1115_50","name":"実沢","lat":38.328289,"lon":140.820679,"time":"13:34"},{"seq":4,"stop_id":"1117_50","name":"小角","lat":38.329036,"lon":140.816313,"time":"13:35"},{"seq":5,"stop_id":"1119_50","name":"鼻毛橋","lat":38.329112,"lon":140.812636,"time":"13:36"},{"seq":6,"stop_id":"1121_50","name":"窪","lat":38.328134,"lon":140.806555,"time":"13:37"},{"seq":7,"stop_id":"1122_10","name":"福沢入口","lat":38.333517,"lon":140.802307,"time":"13:39"},{"seq":8,"stop_id":"1123_50","name":"判在家","lat":38.336028,"lon":140.802082,"time":"13:40"},{"seq":9,"stop_id":"1124_10","name":"根白石デイサービスセンター入口","lat":38.338258,"lon":140.801363,"time":"13:40"},{"seq":10,"stop_id":"1125_50","name":"根白石下町","lat":38.34041,"lon":140.800829,"time":"13:42"},{"seq":11,"stop_id":"1127_50","name":"根白石小学校前","lat":38.343319,"lon":140.798746,"time":"13:42"},{"seq":12,"stop_id":"1129_50","name":"根白石","lat":38.343815,"lon":140.797312,"time":"13:43"},{"seq":13,"stop_id":"1128_50","name":"馬橋","lat":38.346184,"lon":140.79685,"time":"13:44"},{"seq":14,"stop_id":"1132_10","name":"宝積寺前","lat":38.34756,"lon":140.7954,"time":"13:44"},{"seq":15,"stop_id":"1133_10","name":"川向","lat":38.350977,"lon":140.793959,"time":"13:45"},{"seq":16,"stop_id":"1135_10","name":"川崎入口","lat":38.354917,"lon":140.786141,"time":"13:47"},{"seq":17,"stop_id":"1137_50","name":"泉川崎","lat":38.3554,"lon":140.783956,"time":"13:47"},{"seq":18,"stop_id":"1861_10","name":"鳥居原","lat":38.359318,"lon":140.786577,"time":"13:49"},{"seq":19,"stop_id":"1863_10","name":"泉西原","lat":38.362073,"lon":140.78984,"time":"13:49"},{"seq":20,"stop_id":"1165_10","name":"要害","lat":38.365638,"lon":140.79013,"time":"13:51"},{"seq":21,"stop_id":"1867_0","name":"朴沢","lat":38.373554,"lon":140.78915,"time":"13:52"}],"trip_counts":{"weekday":0,"saturday":2,"holiday":2}}],"pattern_count":1},{"route_id":"10019","short_name":"15","full_short_name":"15","long_name":"","color":"#A3D742","text_color":"#050505","patterns":[{"pattern_id":"10019-1","direction_id":"1","headsign":"長町駅・四郎丸","shape_id":"","trip_count":4,"sample_trip_id":"30_1_13002970","stop_count":35,"shape_point_count":35,"shape":[[38.231977,140.888789],[38.234418,140.888635],[38.233626,140.887247],[38.231801,140.886234],[38.23041,140.885488],[38.227338,140.884949],[38.223219,140.883955],[38.219767,140.883125],[38.216856,140.883096],[38.214533,140.884701],[38.210449,140.884595],[38.203382,140.884939],[38.198886,140.885048],[38.197292,140.883666],[38.197484,140.88577],[38.197523,140.889407],[38.196926,140.893096],[38.195669,140.893739],[38.192496,140.897704],[38.192205,140.9007],[38.190384,140.903409],[38.192114,140.904717],[38.193883,140.906365],[38.195066,140.90794],[38.197897,140.9083],[38.19998,140.907059],[38.20013,140.910027],[38.199982,140.912797],[38.199522,140.915655],[38.196925,140.918321],[38.195664,140.919746],[38.193857,140.91986],[38.191816,140.919843],[38.191658,140.923309],[38.189547,140.929342]],"stops":[{"seq":1,"stop_id":"6000_50","name":"市立病院","lat":38.231977,"lon":140.888789,"time":"12:03"},{"seq":2,"stop_id":"6002_50","name":"長町一丁目東","lat":38.234418,"lon":140.888635,"time":"12:03"},{"seq":3,"stop_id":"6001_50","name":"長町一丁目駅","lat":38.233626,"lon":140.887247,"time":"12:05"},{"seq":4,"stop_id":"6003_50","name":"長町三丁目","lat":38.231801,"lon":140.886234,"time":"12:06"},{"seq":5,"stop_id":"6005_50","name":"長町三丁目南","lat":38.23041,"lon":140.885488,"time":"12:07"},{"seq":6,"stop_id":"6007_50","name":"長町駅・たいはっくる前","lat":38.227338,"lon":140.884949,"time":"12:10"},